[{"id":1,"street1":"393 Petterle Parkway","street2":"23 Riverside Alley","city":"Dearborn","state":"MI","zip":"48126","country":"United States","coordinates":{"locLat":"42.3349","locLong":"-83.1801"},"phone":"1-(313)890-3169","contact":1387},
{"id":2,"street1":"77 Butternut Terrace","street2":"5019 Maple Junction","city":"Memphis","state":"TN","zip":"38131","country":"United States","coordinates":{"locLat":"35.0664","locLong":"-89.9921"},"phone":"1-(901)794-4121","contact":1288},
{"id":3,"street1":"1053 Bay Crossing","street2":"5 Springs Road","city":"Maple Plain","state":"MN","zip":"55572","country":"United States","coordinates":{"locLat":"45.0159","locLong":"-93.4719"},"phone":"1-(763)309-2618","contact":2657},
{"id":4,"street1":"82126 Fordem Road","street2":"531 Evergreen Terrace","city":"Atlanta","state":"GA","zip":"31196","country":"United States","coordinates":{"locLat":"33.8444","locLong":"-84.474"},"phone":"1-(404)648-5566","contact":3276},
{"id":5,"street1":"653 Park Meadow Plaza","street2":"61966 International Pass","city":"Boston","state":"MA","zip":"02298","country":"United States","coordinates":{"locLat":"42.3823","locLong":"-71.0323"},"phone":"1-(617)389-3094","contact":139},
{"id":6,"street1":"4 Milwaukee Point","street2":"81 Onsgard Lane","city":"Newark","state":"NJ","zip":"07104","country":"United States","coordinates":{"locLat":"40.7664","locLong":"-74.1695"},"phone":"1-(973)373-3606","contact":905},
{"id":7,"street1":"0 Dakota Place","street2":"4 Hanover Street","city":"Lynn","state":"MA","zip":"01905","country":"United States","coordinates":{"locLat":"42.4694","locLong":"-70.9728"},"phone":"1-(339)475-9731","contact":8922},
{"id":8,"street1":"077 Mendota Court","street2":"17527 Utah Parkway","city":"New York City","state":"NY","zip":"10110","country":"United States","coordinates":{"locLat":"40.754","locLong":"-73.9808"},"phone":"1-(917)399-2669","contact":4888},
{"id":9,"street1":"752 Summerview Crossing","street2":"2 Fremont Center","city":"Trenton","state":"NJ","zip":"08608","country":"United States","coordinates":{"locLat":"40.2204","locLong":"-74.7622"},"phone":"1-(609)921-3661","contact":1356},
{"id":10,"street1":"28 Longview Place","street2":"05 Veith Trail","city":"Bethesda","state":"MD","zip":"20816","country":"United States","coordinates":{"locLat":"38.9585","locLong":"-77.1153"},"phone":"1-(240)947-9908","contact":7814},
{"id":11,"street1":"2752 Grim Street","street2":"4 Declaration Parkway","city":"North Hollywood","state":"CA","zip":"91616","country":"United States","coordinates":{"locLat":"33.7866","locLong":"-118.2987"},"phone":"1-(213)924-7793","contact":550},
{"id":12,"street1":"40 Melby Avenue","street2":"422 Hazelcrest Place","city":"Stamford","state":"CT","zip":"06912","country":"United States","coordinates":{"locLat":"41.3089","locLong":"-73.3637"},"phone":"1-(203)157-6868","contact":4546},
{"id":13,"street1":"1 Declaration Road","street2":"168 Magdeline Junction","city":"Kansas City","state":"MO","zip":"64179","country":"United States","coordinates":{"locLat":"39.035","locLong":"-94.3567"},"phone":"1-(816)970-4365","contact":872},
{"id":14,"street1":"46850 Mosinee Lane","street2":"81 Vernon Parkway","city":"Dayton","state":"OH","zip":"45408","country":"United States","coordinates":{"locLat":"39.7395","locLong":"-84.229"},"phone":"1-(937)893-6664","contact":24},
{"id":15,"street1":"1 Everett Trail","street2":"90235 Mendota Place","city":"Richmond","state":"VA","zip":"23260","country":"United States","coordinates":{"locLat":"37.5242","locLong":"-77.4932"},"phone":"1-(804)520-1787","contact":4211},
{"id":16,"street1":"34 Miller Trail","street2":"0553 Briar Crest Trail","city":"Beaufort","state":"SC","zip":"29905","country":"United States","coordinates":{"locLat":"32.3401","locLong":"-80.689"},"phone":"1-(843)159-2384","contact":3863},
{"id":17,"street1":"4334 4th Street","street2":"3034 Coolidge Parkway","city":"Cincinnati","state":"OH","zip":"45271","country":"United States","coordinates":{"locLat":"39.1668","locLong":"-84.5382"},"phone":"1-(513)759-5221","contact":8001},
{"id":18,"street1":"8 Westend Hill","street2":"96821 Pond Road","city":"Huntsville","state":"TX","zip":"77343","country":"United States","coordinates":{"locLat":"30.7813","locLong":"-95.5953"},"phone":"1-(936)696-3574","contact":8146},
{"id":19,"street1":"66 Texas Place","street2":"0 Randy Trail","city":"Albany","state":"NY","zip":"12247","country":"United States","coordinates":{"locLat":"42.6149","locLong":"-73.9708"},"phone":"1-(518)182-1422","contact":4963},
{"id":20,"street1":"7 Almo Drive","street2":"4 Bluejay Plaza","city":"Reno","state":"NV","zip":"89505","country":"United States","coordinates":{"locLat":"39.5224","locLong":"-119.8353"},"phone":"1-(775)437-2958","contact":4998},
{"id":21,"street1":"36 Sheridan Avenue","street2":"26636 Northport Hill","city":"Jackson","state":"MS","zip":"39210","country":"United States","coordinates":{"locLat":"32.3218","locLong":"-90.1771"},"phone":"1-(601)868-6335","contact":7927},
{"id":22,"street1":"456 Chinook Court","street2":"316 Annamark Court","city":"Richmond","state":"VA","zip":"23242","country":"United States","coordinates":{"locLat":"37.5313","locLong":"-77.4161"},"phone":"1-(804)310-1903","contact":1164},
{"id":23,"street1":"43669 Miller Hill","street2":"9 Delaware Center","city":"Oklahoma City","state":"OK","zip":"73157","country":"United States","coordinates":{"locLat":"35.5514","locLong":"-97.4075"},"phone":"1-(405)348-2206","contact":8998},
{"id":24,"street1":"50035 Drewry Plaza","street2":"5659 Scoville Alley","city":"Charleston","state":"SC","zip":"29424","country":"United States","coordinates":{"locLat":"32.7831","locLong":"-79.937"},"phone":"1-(843)398-7423","contact":9898},
{"id":25,"street1":"1567 Fieldstone Drive","street2":"17 Dexter Trail","city":"Brooklyn","state":"NY","zip":"11210","country":"United States","coordinates":{"locLat":"40.6281","locLong":"-73.9467"},"phone":"1-(718)989-5186","contact":1934},
{"id":26,"street1":"21385 Mayer Way","street2":"9948 Boyd Court","city":"Fort Wayne","state":"IN","zip":"46857","country":"United States","coordinates":{"locLat":"41.0938","locLong":"-85.0707"},"phone":"1-(260)136-9453","contact":9396},
{"id":27,"street1":"6728 Maywood Lane","street2":"82382 Longview Junction","city":"Wichita Falls","state":"TX","zip":"76310","country":"United States","coordinates":{"locLat":"33.8581","locLong":"-98.5755"},"phone":"1-(940)913-4850","contact":4905},
{"id":28,"street1":"788 Montana Lane","street2":"0 Grayhawk Lane","city":"Louisville","state":"KY","zip":"40280","country":"United States","coordinates":{"locLat":"38.2467","locLong":"-85.6853"},"phone":"1-(502)550-1743","contact":7508},
{"id":29,"street1":"6444 Sutteridge Circle","street2":"91 Kings Parkway","city":"Van Nuys","state":"CA","zip":"91411","country":"United States","coordinates":{"locLat":"34.1781","locLong":"-118.4574"},"phone":"1-(818)207-7857","contact":220},
{"id":30,"street1":"65 Eastwood Crossing","street2":"674 Parkside Parkway","city":"Houston","state":"TX","zip":"77223","country":"United States","coordinates":{"locLat":"29.834","locLong":"-95.4342"},"phone":"1-(713)895-4605","contact":7802},
{"id":31,"street1":"35478 Birchwood Parkway","street2":"11 Surrey Plaza","city":"Des Moines","state":"IA","zip":"50347","country":"United States","coordinates":{"locLat":"41.6727","locLong":"-93.5722"},"phone":"1-(515)700-7012","contact":1068},
{"id":32,"street1":"26991 Debra Court","street2":"9 Anniversary Court","city":"Brooklyn","state":"NY","zip":"11247","country":"United States","coordinates":{"locLat":"40.6451","locLong":"-73.945"},"phone":"1-(212)958-1596","contact":5694},
{"id":33,"street1":"423 Norway Maple Pass","street2":"5 Hoffman Plaza","city":"Athens","state":"GA","zip":"30605","country":"United States","coordinates":{"locLat":"33.9321","locLong":"-83.3525"},"phone":"1-(706)776-6069","contact":9347},
{"id":34,"street1":"13 Manufacturers Junction","street2":"55 2nd Junction","city":"Portland","state":"OR","zip":"97201","country":"United States","coordinates":{"locLat":"45.5078","locLong":"-122.6897"},"phone":"1-(971)655-3170","contact":8041},
{"id":35,"street1":"80 Bay Crossing","street2":"787 Shelley Road","city":"Chattanooga","state":"TN","zip":"37416","country":"United States","coordinates":{"locLat":"35.0942","locLong":"-85.1757"},"phone":"1-(423)887-3219","contact":9619},
{"id":36,"street1":"9 Washington Park","street2":"7309 Park Meadow Road","city":"Lexington","state":"KY","zip":"40515","country":"United States","coordinates":{"locLat":"37.9651","locLong":"-84.4708"},"phone":"1-(859)408-4014","contact":8156},
{"id":37,"street1":"1415 Rusk Point","street2":"22 Stuart Street","city":"Paterson","state":"NJ","zip":"07505","country":"United States","coordinates":{"locLat":"40.9166","locLong":"-74.174"},"phone":"1-(862)736-0860","contact":3770},
{"id":38,"street1":"2 Veith Center","street2":"8395 Spohn Point","city":"San Francisco","state":"CA","zip":"94147","country":"United States","coordinates":{"locLat":"37.7848","locLong":"-122.7278"},"phone":"1-(415)257-5199","contact":8857},
{"id":39,"street1":"0 Morrow Trail","street2":"1 Morning Drive","city":"New York City","state":"NY","zip":"10034","country":"United States","coordinates":{"locLat":"40.8662","locLong":"-73.9221"},"phone":"1-(646)981-9474","contact":5371},
{"id":40,"street1":"83325 Tennyson Pass","street2":"01447 Center Trail","city":"Las Vegas","state":"NV","zip":"89125","country":"United States","coordinates":{"locLat":"36.2235","locLong":"-115.2655"},"phone":"1-(702)933-7459","contact":4979},
{"id":41,"street1":"16 Monument Plaza","street2":"29929 Ridgeway Junction","city":"Dallas","state":"TX","zip":"75231","country":"United States","coordinates":{"locLat":"32.8756","locLong":"-96.7495"},"phone":"1-(972)162-3710","contact":682},
{"id":42,"street1":"540 Rockefeller Road","street2":"5 Swallow Court","city":"Seattle","state":"WA","zip":"98104","country":"United States","coordinates":{"locLat":"47.6036","locLong":"-122.3256"},"phone":"1-(360)531-6389","contact":9959},
{"id":43,"street1":"03640 Bunting Park","street2":"32 Thierer Circle","city":"Maple Plain","state":"MN","zip":"55579","country":"United States","coordinates":{"locLat":"45.0159","locLong":"-93.4719"},"phone":"1-(952)202-1321","contact":5163},
{"id":44,"street1":"1722 Montana Circle","street2":"43187 Maple Plaza","city":"Oklahoma City","state":"OK","zip":"73152","country":"United States","coordinates":{"locLat":"35.5514","locLong":"-97.4075"},"phone":"1-(405)809-5996","contact":7926},
{"id":45,"street1":"77 Rusk Road","street2":"23559 Monterey Drive","city":"Albany","state":"NY","zip":"12247","country":"United States","coordinates":{"locLat":"42.6149","locLong":"-73.9708"},"phone":"1-(518)730-9473","contact":3582},
{"id":46,"street1":"4 Anderson Alley","street2":"2 Ludington Street","city":"Boca Raton","state":"FL","zip":"33487","country":"United States","coordinates":{"locLat":"26.4116","locLong":"-80.0928"},"phone":"1-(561)780-3637","contact":8368},
{"id":47,"street1":"9784 Westport Way","street2":"88 Morrow Junction","city":"El Paso","state":"TX","zip":"79989","country":"United States","coordinates":{"locLat":"31.6948","locLong":"-106.3"},"phone":"1-(915)814-2175","contact":474},
{"id":48,"street1":"02 Barnett Trail","street2":"9685 Crowley Plaza","city":"San Antonio","state":"TX","zip":"78285","country":"United States","coordinates":{"locLat":"29.4375","locLong":"-98.4616"},"phone":"1-(210)242-9644","contact":2429},
{"id":49,"street1":"57 Hoard Lane","street2":"45994 Kipling Junction","city":"Atlanta","state":"GA","zip":"31196","country":"United States","coordinates":{"locLat":"33.8444","locLong":"-84.474"},"phone":"1-(404)473-4612","contact":661},
{"id":50,"street1":"61677 Marcy Junction","street2":"37 Esch Avenue","city":"Irvine","state":"CA","zip":"92710","country":"United States","coordinates":{"locLat":"33.7074","locLong":"-117.8403"},"phone":"1-(714)126-8747","contact":9655},
{"id":51,"street1":"5370 Moulton Park","street2":"26 Londonderry Drive","city":"Little Rock","state":"AR","zip":"72204","country":"United States","coordinates":{"locLat":"34.7269","locLong":"-92.344"},"phone":"1-(501)984-8169","contact":2145},
{"id":52,"street1":"13 Oak Hill","street2":"2849 Hazelcrest Alley","city":"Irvine","state":"CA","zip":"92710","country":"United States","coordinates":{"locLat":"33.7074","locLong":"-117.8403"},"phone":"1-(714)672-4435","contact":4889},
{"id":53,"street1":"2 Iowa Crossing","street2":"0954 Becker Pass","city":"Henderson","state":"NV","zip":"89012","country":"United States","coordinates":{"locLat":"36.0119","locLong":"-115.0433"},"phone":"1-(702)132-3360","contact":9962},
{"id":54,"street1":"50 Arizona Junction","street2":"8 Vidon Park","city":"Washington","state":"DC","zip":"20397","country":"United States","coordinates":{"locLat":"38.9164","locLong":"-76.9948"},"phone":"1-(202)873-6241","contact":6274},
{"id":55,"street1":"50 Clarendon Way","street2":"23 Transport Pass","city":"Topeka","state":"KS","zip":"66667","country":"United States","coordinates":{"locLat":"39.0429","locLong":"-95.7697"},"phone":"1-(785)576-1988","contact":4746},
{"id":56,"street1":"80573 Monument Center","street2":"37434 Bartelt Center","city":"Wichita","state":"KS","zip":"67230","country":"United States","coordinates":{"locLat":"37.6808","locLong":"-97.1558"},"phone":"1-(316)797-2007","contact":9865},
{"id":57,"street1":"4464 Kipling Way","street2":"47 Transport Junction","city":"Birmingham","state":"AL","zip":"35225","country":"United States","coordinates":{"locLat":"33.5446","locLong":"-86.9292"},"phone":"1-(205)232-1792","contact":1960},
{"id":58,"street1":"636 Roth Park","street2":"16476 Sutherland Road","city":"Atlanta","state":"GA","zip":"31196","country":"United States","coordinates":{"locLat":"33.8444","locLong":"-84.474"},"phone":"1-(404)422-8692","contact":4421},
{"id":59,"street1":"309 Claremont Trail","street2":"3 Mesta Hill","city":"El Paso","state":"TX","zip":"88563","country":"United States","coordinates":{"locLat":"31.6948","locLong":"-106.3"},"phone":"1-(915)630-3172","contact":3091},
{"id":60,"street1":"329 Anzinger Terrace","street2":"56555 Waywood Avenue","city":"Richmond","state":"VA","zip":"23242","country":"United States","coordinates":{"locLat":"37.5313","locLong":"-77.4161"},"phone":"1-(804)347-3043","contact":4946},
{"id":61,"street1":"5867 Fair Oaks Road","street2":"7307 Graceland Lane","city":"Provo","state":"UT","zip":"84605","country":"United States","coordinates":{"locLat":"40.177","locLong":"-111.536"},"phone":"1-(801)726-1725","contact":5844},
{"id":62,"street1":"19201 Fordem Center","street2":"88929 Basil Way","city":"El Paso","state":"TX","zip":"88589","country":"United States","coordinates":{"locLat":"31.6948","locLong":"-106.3"},"phone":"1-(915)642-9225","contact":8000},
{"id":63,"street1":"5021 Acker Terrace","street2":"80561 Corry Place","city":"Houston","state":"TX","zip":"77080","country":"United States","coordinates":{"locLat":"29.8159","locLong":"-95.523"},"phone":"1-(281)892-5300","contact":6651},
{"id":64,"street1":"5 Eliot Drive","street2":"45307 Bartelt Street","city":"Miami","state":"FL","zip":"33142","country":"United States","coordinates":{"locLat":"25.813","locLong":"-80.232"},"phone":"1-(786)218-0332","contact":7061},
{"id":65,"street1":"5810 Fisk Place","street2":"62 Melody Court","city":"Monticello","state":"MN","zip":"55590","country":"United States","coordinates":{"locLat":"45.2009","locLong":"-93.8881"},"phone":"1-(763)113-1751","contact":6372},
{"id":66,"street1":"1 Stang Lane","street2":"41790 Stephen Road","city":"San Bernardino","state":"CA","zip":"92405","country":"United States","coordinates":{"locLat":"34.1446","locLong":"-117.3013"},"phone":"1-(909)239-8070","contact":6395},
{"id":67,"street1":"834 Forest Crossing","street2":"832 Montana Center","city":"Biloxi","state":"MS","zip":"39534","country":"United States","coordinates":{"locLat":"30.4067","locLong":"-88.9211"},"phone":"1-(228)782-9009","contact":2116},
{"id":68,"street1":"96834 Buena Vista Way","street2":"67050 Crescent Oaks Avenue","city":"Columbus","state":"OH","zip":"43215","country":"United States","coordinates":{"locLat":"39.9671","locLong":"-83.0044"},"phone":"1-(614)175-6821","contact":4776},
{"id":69,"street1":"56993 Homewood Crossing","street2":"60442 Bunting Road","city":"Richmond","state":"VA","zip":"23225","country":"United States","coordinates":{"locLat":"37.5158","locLong":"-77.5047"},"phone":"1-(757)778-8406","contact":3333},
{"id":70,"street1":"29 Sommers Point","street2":"957 Clarendon Terrace","city":"Madison","state":"WI","zip":"53710","country":"United States","coordinates":{"locLat":"43.0696","locLong":"-89.4239"},"phone":"1-(608)797-1955","contact":8729},
{"id":71,"street1":"3738 6th Crossing","street2":"5 Basil Court","city":"Virginia Beach","state":"VA","zip":"23459","country":"United States","coordinates":{"locLat":"36.9216","locLong":"-76.0171"},"phone":"1-(757)318-9339","contact":5189},
{"id":72,"street1":"8434 Merry Lane","street2":"0 Anzinger Crossing","city":"Utica","state":"NY","zip":"13505","country":"United States","coordinates":{"locLat":"43.0872","locLong":"-75.2603"},"phone":"1-(315)823-0997","contact":4799},
{"id":73,"street1":"34701 Roxbury Crossing","street2":"1779 Shelley Place","city":"Cape Coral","state":"FL","zip":"33915","country":"United States","coordinates":{"locLat":"26.6599","locLong":"-81.8934"},"phone":"1-(239)530-6157","contact":8674},
{"id":74,"street1":"07036 Acker Place","street2":"599 High Crossing Point","city":"Colorado Springs","state":"CO","zip":"80995","country":"United States","coordinates":{"locLat":"38.8247","locLong":"-104.562"},"phone":"1-(719)561-6907","contact":4339},
{"id":75,"street1":"1 Bluejay Trail","street2":"1797 Kingsford Center","city":"Lees Summit","state":"MO","zip":"64082","country":"United States","coordinates":{"locLat":"38.8518","locLong":"-94.3944"},"phone":"1-(816)753-2133","contact":5551},
{"id":76,"street1":"35 Quincy Circle","street2":"4871 Banding Plaza","city":"Cincinnati","state":"OH","zip":"45264","country":"United States","coordinates":{"locLat":"39.1668","locLong":"-84.5382"},"phone":"1-(513)318-8244","contact":1081},
{"id":77,"street1":"6 Little Fleur Drive","street2":"30 Morning Junction","city":"Alexandria","state":"VA","zip":"22333","country":"United States","coordinates":{"locLat":"38.8158","locLong":"-77.09"},"phone":"1-(571)820-6997","contact":227},
{"id":78,"street1":"11 La Follette Plaza","street2":"707 Dorton Street","city":"Northridge","state":"CA","zip":"91328","country":"United States","coordinates":{"locLat":"33.7866","locLong":"-118.2987"},"phone":"1-(818)843-5266","contact":1233},
{"id":79,"street1":"3 Maryland Avenue","street2":"9522 Transport Parkway","city":"Memphis","state":"TN","zip":"38126","country":"United States","coordinates":{"locLat":"35.1255","locLong":"-90.0424"},"phone":"1-(901)653-1132","contact":4563},
{"id":80,"street1":"98176 Loeprich Drive","street2":"31310 Stoughton Avenue","city":"El Paso","state":"TX","zip":"88535","country":"United States","coordinates":{"locLat":"31.6948","locLong":"-106.3"},"phone":"1-(915)184-5539","contact":8805},
{"id":81,"street1":"76 Parkside Street","street2":"808 Anhalt Junction","city":"Washington","state":"DC","zip":"20016","country":"United States","coordinates":{"locLat":"38.9381","locLong":"-77.086"},"phone":"1-(202)454-5998","contact":8720},
{"id":82,"street1":"9465 Fairview Parkway","street2":"626 New Castle Center","city":"Sacramento","state":"CA","zip":"94230","country":"United States","coordinates":{"locLat":"38.3774","locLong":"-121.4444"},"phone":"1-(916)923-2784","contact":1011},
{"id":83,"street1":"8 Everett Place","street2":"640 Fisk Junction","city":"Pueblo","state":"CO","zip":"81005","country":"United States","coordinates":{"locLat":"38.2352","locLong":"-104.66"},"phone":"1-(719)389-5325","contact":2369},
{"id":84,"street1":"1 Milwaukee Plaza","street2":"44 Carberry Trail","city":"Greensboro","state":"NC","zip":"27455","country":"United States","coordinates":{"locLat":"36.1824","locLong":"-79.806"},"phone":"1-(910)319-9475","contact":7527},
{"id":85,"street1":"3 Mitchell Park","street2":"84371 Bay Road","city":"Marietta","state":"GA","zip":"30061","country":"United States","coordinates":{"locLat":"33.9328","locLong":"-84.556"},"phone":"1-(770)280-9505","contact":7492},
{"id":86,"street1":"85086 Ronald Regan Way","street2":"4 Oneill Road","city":"Toledo","state":"OH","zip":"43610","country":"United States","coordinates":{"locLat":"41.6767","locLong":"-83.5573"},"phone":"1-(419)770-3595","contact":1777},
{"id":87,"street1":"1358 Shoshone Pass","street2":"675 Donald Terrace","city":"Saint Petersburg","state":"FL","zip":"33710","country":"United States","coordinates":{"locLat":"27.7898","locLong":"-82.7243"},"phone":"1-(727)372-4366","contact":8326},
{"id":88,"street1":"183 Pearson Lane","street2":"9441 Carberry Way","city":"Greeley","state":"CO","zip":"80638","country":"United States","coordinates":{"locLat":"40.5009","locLong":"-104.315"},"phone":"1-(970)984-8842","contact":5547},
{"id":89,"street1":"7050 Rusk Point","street2":"25 Basil Circle","city":"Sacramento","state":"CA","zip":"94207","country":"United States","coordinates":{"locLat":"38.3774","locLong":"-121.4444"},"phone":"1-(916)375-1776","contact":2346},
{"id":90,"street1":"846 Namekagon Place","street2":"5 Stoughton Road","city":"Richmond","state":"VA","zip":"23203","country":"United States","coordinates":{"locLat":"37.5593","locLong":"-77.4471"},"phone":"1-(804)953-3739","contact":7284},
{"id":91,"street1":"08861 Macpherson Park","street2":"079 Derek Avenue","city":"Migrate","state":"KY","zip":"41905","country":"United States","coordinates":{"locLat":"38.0638","locLong":"-84.5027"},"phone":"1-(502)484-2274","contact":6328},
{"id":92,"street1":"8904 Vermont Center","street2":"816 Columbus Drive","city":"Miami","state":"FL","zip":"33180","country":"United States","coordinates":{"locLat":"25.9597","locLong":"-80.1403"},"phone":"1-(786)872-6758","contact":4955},
{"id":93,"street1":"10 Lake View Pass","street2":"88 Pleasure Way","city":"Orange","state":"CA","zip":"92862","country":"United States","coordinates":{"locLat":"33.7915","locLong":"-117.714"},"phone":"1-(714)732-7744","contact":4868},
{"id":94,"street1":"5242 Sachtjen Parkway","street2":"4904 Beilfuss Park","city":"New York City","state":"NY","zip":"10115","country":"United States","coordinates":{"locLat":"40.8111","locLong":"-73.9642"},"phone":"1-(212)277-6155","contact":7044},
{"id":95,"street1":"86 Green Center","street2":"92998 Elmside Point","city":"New York City","state":"NY","zip":"10060","country":"United States","coordinates":{"locLat":"40.7808","locLong":"-73.9772"},"phone":"1-(646)438-2817","contact":9943},
{"id":96,"street1":"804 Mayfield Place","street2":"8 Schiller Place","city":"San Diego","state":"CA","zip":"92127","country":"United States","coordinates":{"locLat":"33.0279","locLong":"-117.0856"},"phone":"1-(760)747-8126","contact":6499},
{"id":97,"street1":"3 Novick Trail","street2":"9 Eagle Crest Crossing","city":"Joliet","state":"IL","zip":"60435","country":"United States","coordinates":{"locLat":"41.5454","locLong":"-88.1299"},"phone":"1-(815)120-8845","contact":4908},
{"id":98,"street1":"216 Calypso Road","street2":"6272 Butternut Place","city":"Norwalk","state":"CT","zip":"06854","country":"United States","coordinates":{"locLat":"41.0957","locLong":"-73.4285"},"phone":"1-(203)909-6419","contact":4066},
{"id":99,"street1":"85 Jenna Alley","street2":"839 Montana Drive","city":"Newton","state":"MA","zip":"02458","country":"United States","coordinates":{"locLat":"42.3528","locLong":"-71.1875"},"phone":"1-(617)115-4589","contact":1685},
{"id":100,"street1":"45 Menomonie Parkway","street2":"02071 Waywood Plaza","city":"Newport News","state":"VA","zip":"23605","country":"United States","coordinates":{"locLat":"37.0156","locLong":"-76.4332"},"phone":"1-(757)373-3969","contact":6388},
{"id":101,"street1":"1089 Graceland Alley","street2":"48 Sage Road","city":"New Haven","state":"CT","zip":"06510","country":"United States","coordinates":{"locLat":"41.3087","locLong":"-72.9271"},"phone":"1-(203)896-2416","contact":9383},
{"id":102,"street1":"172 Anzinger Street","street2":"405 Florence Street","city":"White Plains","state":"NY","zip":"10606","country":"United States","coordinates":{"locLat":"41.0247","locLong":"-73.7781"},"phone":"1-(845)353-0831","contact":6917},
{"id":103,"street1":"70 Carberry Crossing","street2":"0 Tony Park","city":"Baltimore","state":"MD","zip":"21290","country":"United States","coordinates":{"locLat":"39.2933","locLong":"-76.6238"},"phone":"1-(410)268-1210","contact":3145},
{"id":104,"street1":"1 Kingsford Way","street2":"1229 Loftsgordon Place","city":"Topeka","state":"KS","zip":"66629","country":"United States","coordinates":{"locLat":"39.0429","locLong":"-95.7697"},"phone":"1-(785)610-0669","contact":86},
{"id":105,"street1":"0718 Sunbrook Place","street2":"4 Fairfield Circle","city":"Amarillo","state":"TX","zip":"79116","country":"United States","coordinates":{"locLat":"35.2454","locLong":"-101.999"},"phone":"1-(806)467-1827","contact":3542},
{"id":106,"street1":"64 Karstens Trail","street2":"4980 Monument Pass","city":"Albany","state":"NY","zip":"12255","country":"United States","coordinates":{"locLat":"42.6149","locLong":"-73.9708"},"phone":"1-(518)241-6313","contact":1914},
{"id":107,"street1":"38 Annamark Circle","street2":"629 East Street","city":"New Haven","state":"CT","zip":"06533","country":"United States","coordinates":{"locLat":"41.3657","locLong":"-72.9275"},"phone":"1-(203)314-6145","contact":7576},
{"id":108,"street1":"472 Bobwhite Point","street2":"97 Bluestem Junction","city":"Fresno","state":"CA","zip":"93704","country":"United States","coordinates":{"locLat":"36.7991","locLong":"-119.8016"},"phone":"1-(559)891-7784","contact":7078},
{"id":109,"street1":"5793 Eagle Crest Park","street2":"6 Loeprich Avenue","city":"Chicago","state":"IL","zip":"60614","country":"United States","coordinates":{"locLat":"41.9229","locLong":"-87.6483"},"phone":"1-(773)359-2694","contact":1404},
{"id":110,"street1":"9060 Petterle Pass","street2":"37698 Oneill Terrace","city":"Houston","state":"TX","zip":"77212","country":"United States","coordinates":{"locLat":"29.834","locLong":"-95.4342"},"phone":"1-(713)961-0728","contact":2646},
{"id":111,"street1":"23 Stoughton Terrace","street2":"574 Kennedy Court","city":"Charlotte","state":"NC","zip":"28235","country":"United States","coordinates":{"locLat":"35.26","locLong":"-80.8042"},"phone":"1-(704)746-2002","contact":7934},
{"id":112,"street1":"439 Cascade Street","street2":"9 Shelley Park","city":"Milwaukee","state":"WI","zip":"53263","country":"United States","coordinates":{"locLat":"43.0746","locLong":"-88.0604"},"phone":"1-(414)187-9169","contact":6402},
{"id":113,"street1":"892 Declaration Park","street2":"9668 Buell Plaza","city":"Hattiesburg","state":"MS","zip":"39404","country":"United States","coordinates":{"locLat":"31.1721","locLong":"-89.2948"},"phone":"1-(601)359-0989","contact":2172},
{"id":114,"street1":"7572 Chinook Plaza","street2":"464 Kenwood Circle","city":"Baton Rouge","state":"LA","zip":"70894","country":"United States","coordinates":{"locLat":"30.5159","locLong":"-91.0804"},"phone":"1-(225)991-1935","contact":7769},
{"id":115,"street1":"87 Merchant Plaza","street2":"35 Spenser Hill","city":"Phoenix","state":"AZ","zip":"85053","country":"United States","coordinates":{"locLat":"33.6299","locLong":"-112.1316"},"phone":"1-(602)439-4123","contact":7749},
{"id":116,"street1":"4975 Claremont Parkway","street2":"08664 Morrow Pass","city":"New York City","state":"NY","zip":"10060","country":"United States","coordinates":{"locLat":"40.7808","locLong":"-73.9772"},"phone":"1-(646)871-1348","contact":1842},
{"id":117,"street1":"5055 Prairieview Park","street2":"2 Anniversary Trail","city":"Florence","state":"SC","zip":"29505","country":"United States","coordinates":{"locLat":"34.1231","locLong":"-79.6893"},"phone":"1-(843)448-5527","contact":5320},
{"id":118,"street1":"05275 Green Hill","street2":"26874 Sloan Pass","city":"Salt Lake City","state":"UT","zip":"84199","country":"United States","coordinates":{"locLat":"40.7259","locLong":"-111.9394"},"phone":"1-(801)244-9333","contact":5655},
{"id":119,"street1":"85 Green Ridge Drive","street2":"329 Commercial Park","city":"Washington","state":"DC","zip":"20099","country":"United States","coordinates":{"locLat":"38.8933","locLong":"-77.0146"},"phone":"1-(202)459-3190","contact":6214},
{"id":120,"street1":"130 Bultman Court","street2":"80899 Eggendart Street","city":"New York City","state":"NY","zip":"10160","country":"United States","coordinates":{"locLat":"40.7808","locLong":"-73.9772"},"phone":"1-(212)957-7262","contact":5815},
{"id":121,"street1":"7221 Fordem Alley","street2":"2509 Hovde Trail","city":"Kansas City","state":"MO","zip":"64179","country":"United States","coordinates":{"locLat":"39.035","locLong":"-94.3567"},"phone":"1-(816)369-7402","contact":663},
{"id":122,"street1":"0711 Emmet Circle","street2":"0673 Brickson Park Lane","city":"Des Moines","state":"IA","zip":"50320","country":"United States","coordinates":{"locLat":"41.5487","locLong":"-93.5827"},"phone":"1-(515)705-2039","contact":2},
{"id":123,"street1":"0 Glendale Street","street2":"440 North Hill","city":"Denver","state":"CO","zip":"80291","country":"United States","coordinates":{"locLat":"39.7439","locLong":"-104.9876"},"phone":"1-(303)132-0838","contact":7590},
{"id":124,"street1":"0 Maryland Way","street2":"6 Spohn Road","city":"North Las Vegas","state":"NV","zip":"89036","country":"United States","coordinates":{"locLat":"35.9279","locLong":"-114.9721"},"phone":"1-(702)606-3735","contact":9918},
{"id":125,"street1":"05729 Di Loreto Hill","street2":"243 Sheridan Circle","city":"Woburn","state":"MA","zip":"01813","country":"United States","coordinates":{"locLat":"42.4464","locLong":"-71.4594"},"phone":"1-(339)505-8602","contact":4369},
{"id":126,"street1":"32723 Kim Terrace","street2":"59 Red Cloud Point","city":"West Palm Beach","state":"FL","zip":"33411","country":"United States","coordinates":{"locLat":"26.6644","locLong":"-80.1741"},"phone":"1-(561)107-5221","contact":7264},
{"id":127,"street1":"32777 Quincy Lane","street2":"99669 Upham Alley","city":"Washington","state":"DC","zip":"20231","country":"United States","coordinates":{"locLat":"38.8933","locLong":"-77.0146"},"phone":"1-(202)861-5292","contact":8162},
{"id":128,"street1":"22120 Paget Terrace","street2":"5 Columbus Plaza","city":"Naples","state":"FL","zip":"34108","country":"United States","coordinates":{"locLat":"26.2416","locLong":"-81.8071"},"phone":"1-(941)358-0019","contact":8933},
{"id":129,"street1":"663 Lighthouse Bay Point","street2":"9366 Havey Hill","city":"Houston","state":"TX","zip":"77212","country":"United States","coordinates":{"locLat":"29.834","locLong":"-95.4342"},"phone":"1-(713)264-6702","contact":592},
{"id":130,"street1":"2 Mifflin Drive","street2":"45 Lunder Point","city":"Columbia","state":"SC","zip":"29208","country":"United States","coordinates":{"locLat":"33.9937","locLong":"-81.0199"},"phone":"1-(803)709-6835","contact":1416},
{"id":131,"street1":"151 Center Avenue","street2":"09 Maple Wood Trail","city":"Utica","state":"NY","zip":"13505","country":"United States","coordinates":{"locLat":"43.0872","locLong":"-75.2603"},"phone":"1-(315)311-8861","contact":382},
{"id":132,"street1":"03 Mendota Point","street2":"30187 Muir Place","city":"Beaumont","state":"TX","zip":"77713","country":"United States","coordinates":{"locLat":"30.085","locLong":"-94.2607"},"phone":"1-(936)667-7111","contact":9180},
{"id":133,"street1":"88883 Esch Place","street2":"11346 Boyd Park","city":"Washington","state":"DC","zip":"20220","country":"United States","coordinates":{"locLat":"38.8933","locLong":"-77.0146"},"phone":"1-(202)236-2603","contact":6130},
{"id":134,"street1":"1 Maple Wood Alley","street2":"21 Waywood Park","city":"Honolulu","state":"HI","zip":"96810","country":"United States","coordinates":{"locLat":"21.3062","locLong":"-157.8585"},"phone":"1-(808)789-5849","contact":1383},
{"id":135,"street1":"3524 Bashford Drive","street2":"27843 Maryland Point","city":"Indianapolis","state":"IN","zip":"46266","country":"United States","coordinates":{"locLat":"39.7795","locLong":"-86.1328"},"phone":"1-(317)929-8292","contact":3788},
{"id":136,"street1":"2 Pankratz Street","street2":"3407 Lyons Terrace","city":"Gatesville","state":"TX","zip":"76598","country":"United States","coordinates":{"locLat":"31.3902","locLong":"-97.7993"},"phone":"1-(254)107-4773","contact":6598},
{"id":137,"street1":"02 Independence Alley","street2":"21587 Forest Pass","city":"Cleveland","state":"OH","zip":"44111","country":"United States","coordinates":{"locLat":"41.4571","locLong":"-81.7844"},"phone":"1-(216)320-6841","contact":4035},
{"id":138,"street1":"9 Pankratz Avenue","street2":"89 Sunfield Terrace","city":"Orange","state":"CA","zip":"92862","country":"United States","coordinates":{"locLat":"33.7915","locLong":"-117.714"},"phone":"1-(714)520-8132","contact":4543},
{"id":139,"street1":"5185 Meadow Valley Avenue","street2":"18094 Almo Point","city":"Columbia","state":"MO","zip":"65218","country":"United States","coordinates":{"locLat":"38.9033","locLong":"-92.1022"},"phone":"1-(573)511-0559","contact":9057},
{"id":140,"street1":"0 Hooker Trail","street2":"97699 Memorial Drive","city":"Washington","state":"DC","zip":"20508","country":"United States","coordinates":{"locLat":"38.8933","locLong":"-77.0146"},"phone":"1-(202)734-4806","contact":9736},
{"id":141,"street1":"997 Columbus Terrace","street2":"5703 Swallow Junction","city":"Galveston","state":"TX","zip":"77554","country":"United States","coordinates":{"locLat":"29.2243","locLong":"-94.9637"},"phone":"1-(409)704-6619","contact":8322},
{"id":142,"street1":"2 Talmadge Avenue","street2":"0 Merrick Terrace","city":"Annapolis","state":"MD","zip":"21405","country":"United States","coordinates":{"locLat":"39.0305","locLong":"-76.5515"},"phone":"1-(301)128-4265","contact":5560},
{"id":143,"street1":"1093 Straubel Road","street2":"96479 Summerview Lane","city":"Farmington","state":"MI","zip":"48335","country":"United States","coordinates":{"locLat":"42.4617","locLong":"-83.4053"},"phone":"1-(248)295-4883","contact":5769},
{"id":144,"street1":"90074 Surrey Junction","street2":"7 Bultman Park","city":"Fullerton","state":"CA","zip":"92835","country":"United States","coordinates":{"locLat":"33.8994","locLong":"-117.9063"},"phone":"1-(714)921-8311","contact":4751},
{"id":145,"street1":"12462 Hazelcrest Drive","street2":"34849 Springview Street","city":"Salt Lake City","state":"UT","zip":"84120","country":"United States","coordinates":{"locLat":"40.695","locLong":"-112.0001"},"phone":"1-(801)637-6682","contact":8717},
{"id":146,"street1":"6 Heath Crossing","street2":"395 Autumn Leaf Park","city":"Indianapolis","state":"IN","zip":"46254","country":"United States","coordinates":{"locLat":"39.849","locLong":"-86.272"},"phone":"1-(317)778-4377","contact":6060},
{"id":147,"street1":"65108 Starling Drive","street2":"1 Sugar Alley","city":"Nashville","state":"TN","zip":"37228","country":"United States","coordinates":{"locLat":"36.1901","locLong":"-86.8053"},"phone":"1-(615)871-7808","contact":1821},
{"id":148,"street1":"925 Esch Place","street2":"7363 Sachs Court","city":"Homestead","state":"FL","zip":"33034","country":"United States","coordinates":{"locLat":"25.2846","locLong":"-80.6246"},"phone":"1-(305)237-4414","contact":114},
{"id":149,"street1":"879 Lien Avenue","street2":"4 Hansons Pass","city":"Charleston","state":"SC","zip":"29424","country":"United States","coordinates":{"locLat":"32.7831","locLong":"-79.937"},"phone":"1-(843)805-9728","contact":9676},
{"id":150,"street1":"5794 Ryan Drive","street2":"8677 Mayfield Plaza","city":"Alhambra","state":"CA","zip":"91841","country":"United States","coordinates":{"locLat":"33.7866","locLong":"-118.2987"},"phone":"1-(626)974-1151","contact":8197},
{"id":151,"street1":"63 Bluejay Center","street2":"93725 Summit Alley","city":"Tulsa","state":"OK","zip":"74108","country":"United States","coordinates":{"locLat":"36.1499","locLong":"-95.7923"},"phone":"1-(918)480-1971","contact":2105},
{"id":152,"street1":"7 Harper Crossing","street2":"8 Acker Pass","city":"Richmond","state":"VA","zip":"23277","country":"United States","coordinates":{"locLat":"37.5535","locLong":"-77.4604"},"phone":"1-(804)584-2167","contact":9565},
{"id":153,"street1":"0620 Brown Point","street2":"04866 Park Meadow Point","city":"Cleveland","state":"OH","zip":"44111","country":"United States","coordinates":{"locLat":"41.4571","locLong":"-81.7844"},"phone":"1-(216)654-0972","contact":4937},
{"id":154,"street1":"1582 Ronald Regan Court","street2":"818 Melody Drive","city":"New Orleans","state":"LA","zip":"70183","country":"United States","coordinates":{"locLat":"29.6779","locLong":"-90.0901"},"phone":"1-(504)455-3426","contact":75},
{"id":155,"street1":"9 Tennessee Parkway","street2":"96215 Leroy Lane","city":"Mesa","state":"AZ","zip":"85210","country":"United States","coordinates":{"locLat":"33.3887","locLong":"-111.8428"},"phone":"1-(602)403-0445","contact":4924},
{"id":156,"street1":"7 Bay Junction","street2":"84305 Ruskin Place","city":"Buffalo","state":"NY","zip":"14263","country":"United States","coordinates":{"locLat":"42.7684","locLong":"-78.8871"},"phone":"1-(716)295-6288","contact":4677},
{"id":157,"street1":"02 Artisan Drive","street2":"3 Londonderry Point","city":"Dallas","state":"TX","zip":"75241","country":"United States","coordinates":{"locLat":"32.6722","locLong":"-96.7774"},"phone":"1-(972)201-2961","contact":338},
{"id":158,"street1":"1 Carey Park","street2":"0460 Ridge Oak Lane","city":"San Francisco","state":"CA","zip":"94147","country":"United States","coordinates":{"locLat":"37.7848","locLong":"-122.7278"},"phone":"1-(415)439-8911","contact":6568},
{"id":159,"street1":"575 Mcguire Plaza","street2":"25 Commercial Junction","city":"Austin","state":"TX","zip":"78737","country":"United States","coordinates":{"locLat":"30.2107","locLong":"-97.9427"},"phone":"1-(512)278-9488","contact":761},
{"id":160,"street1":"335 Park Meadow Street","street2":"7284 Randy Terrace","city":"El Paso","state":"TX","zip":"88519","country":"United States","coordinates":{"locLat":"31.6948","locLong":"-106.3"},"phone":"1-(915)809-9410","contact":7970},
{"id":161,"street1":"60591 Summer Ridge Park","street2":"842 Tennessee Court","city":"Orlando","state":"FL","zip":"32859","country":"United States","coordinates":{"locLat":"28.4429","locLong":"-81.4026"},"phone":"1-(407)837-8070","contact":8909},
{"id":162,"street1":"3 Stone Corner Pass","street2":"6 Kings Point","city":"Austin","state":"TX","zip":"78726","country":"United States","coordinates":{"locLat":"30.43","locLong":"-97.8326"},"phone":"1-(512)207-1140","contact":2391},
{"id":163,"street1":"5 Pierstorff Point","street2":"0167 Merchant Alley","city":"Macon","state":"GA","zip":"31296","country":"United States","coordinates":{"locLat":"32.8067","locLong":"-83.6913"},"phone":"1-(478)754-0311","contact":1268},
{"id":164,"street1":"2 Kedzie Circle","street2":"0083 Autumn Leaf Place","city":"Duluth","state":"GA","zip":"30096","country":"United States","coordinates":{"locLat":"33.9845","locLong":"-84.1529"},"phone":"1-(404)484-0526","contact":4983},
{"id":165,"street1":"550 Susan Alley","street2":"77 Carey Terrace","city":"Sunnyvale","state":"CA","zip":"94089","country":"United States","coordinates":{"locLat":"37.3983","locLong":"-122.0006"},"phone":"1-(408)305-7242","contact":9987},
{"id":166,"street1":"0609 Forest Avenue","street2":"6127 Sachs Junction","city":"Las Vegas","state":"NV","zip":"89130","country":"United States","coordinates":{"locLat":"36.2471","locLong":"-115.221"},"phone":"1-(702)106-3961","contact":9939},
{"id":167,"street1":"00 Hudson Way","street2":"64743 Kensington Street","city":"Des Moines","state":"IA","zip":"50305","country":"United States","coordinates":{"locLat":"41.6727","locLong":"-93.5722"},"phone":"1-(515)395-2343","contact":3720},
{"id":168,"street1":"65 Westend Circle","street2":"1066 Corben Road","city":"Oklahoma City","state":"OK","zip":"73124","country":"United States","coordinates":{"locLat":"35.5514","locLong":"-97.4075"},"phone":"1-(405)797-4359","contact":28},
{"id":169,"street1":"9710 Golf View Pass","street2":"555 Lukken Road","city":"New Bedford","state":"MA","zip":"02745","country":"United States","coordinates":{"locLat":"41.6913","locLong":"-70.9355"},"phone":"1-(508)807-1762","contact":2610},
{"id":170,"street1":"1099 Hermina Alley","street2":"05 East Lane","city":"Washington","state":"DC","zip":"20260","country":"United States","coordinates":{"locLat":"38.8933","locLong":"-77.0146"},"phone":"1-(202)789-1692","contact":2350},
{"id":171,"street1":"637 Monica Parkway","street2":"160 Eagan Parkway","city":"Austin","state":"TX","zip":"78783","country":"United States","coordinates":{"locLat":"30.3264","locLong":"-97.7713"},"phone":"1-(512)962-1301","contact":4709},
{"id":172,"street1":"7208 Moland Park","street2":"19 Golf Park","city":"Oklahoma City","state":"OK","zip":"73119","country":"United States","coordinates":{"locLat":"35.421","locLong":"-97.5616"},"phone":"1-(405)143-8793","contact":8609},
{"id":173,"street1":"67091 Maple Wood Circle","street2":"70 Lunder Way","city":"White Plains","state":"NY","zip":"10606","country":"United States","coordinates":{"locLat":"41.0247","locLong":"-73.7781"},"phone":"1-(845)416-9049","contact":9422},
{"id":174,"street1":"837 John Wall Point","street2":"652 Kennedy Junction","city":"Carson City","state":"NV","zip":"89714","country":"United States","coordinates":{"locLat":"39.1678","locLong":"-119.7764"},"phone":"1-(775)233-5402","contact":4657},
{"id":175,"street1":"5925 Blue Bill Park Plaza","street2":"5 Eliot Lane","city":"Oakland","state":"CA","zip":"94616","country":"United States","coordinates":{"locLat":"37.8044","locLong":"-122.2698"},"phone":"1-(510)325-2762","contact":5333},
{"id":176,"street1":"54 Sheridan Terrace","street2":"97312 Westridge Crossing","city":"Fort Wayne","state":"IN","zip":"46825","country":"United States","coordinates":{"locLat":"41.1465","locLong":"-85.1232"},"phone":"1-(260)896-3914","contact":5646},
{"id":177,"street1":"86 Nevada Pass","street2":"69 Waywood Plaza","city":"Metairie","state":"LA","zip":"70005","country":"United States","coordinates":{"locLat":"30.0005","locLong":"-90.1331"},"phone":"1-(504)758-0692","contact":9739},
{"id":178,"street1":"01511 Parkside Parkway","street2":"130 Kedzie Circle","city":"Wilmington","state":"DE","zip":"19810","country":"United States","coordinates":{"locLat":"39.8188","locLong":"-75.5064"},"phone":"1-(302)699-0336","contact":7574},
{"id":179,"street1":"370 Vahlen Crossing","street2":"8 Pepper Wood Road","city":"Nashville","state":"TN","zip":"37215","country":"United States","coordinates":{"locLat":"36.0986","locLong":"-86.8219"},"phone":"1-(615)371-4483","contact":7426},
{"id":180,"street1":"67 Stuart Center","street2":"459 Harbort Plaza","city":"Lehigh Acres","state":"FL","zip":"33972","country":"United States","coordinates":{"locLat":"26.6492","locLong":"-81.6167"},"phone":"1-(863)715-1896","contact":9208},
{"id":181,"street1":"5934 Corry Place","street2":"85767 Hanover Alley","city":"Port Saint Lucie","state":"FL","zip":"34985","country":"United States","coordinates":{"locLat":"27.3822","locLong":"-80.409"},"phone":"1-(772)559-5328","contact":8221},
{"id":182,"street1":"1973 Delladonna Parkway","street2":"45 Canary Trail","city":"Cleveland","state":"OH","zip":"44185","country":"United States","coordinates":{"locLat":"41.6857","locLong":"-81.6728"},"phone":"1-(216)366-0350","contact":8231},
{"id":183,"street1":"88 Starling Crossing","street2":"57 Continental Park","city":"New York City","state":"NY","zip":"10029","country":"United States","coordinates":{"locLat":"40.7918","locLong":"-73.9448"},"phone":"1-(646)641-7969","contact":6547},
{"id":184,"street1":"699 Dwight Street","street2":"2 Westerfield Hill","city":"Savannah","state":"GA","zip":"31422","country":"United States","coordinates":{"locLat":"31.9714","locLong":"-81.0716"},"phone":"1-(912)855-8899","contact":2071},
{"id":185,"street1":"2175 Bunker Hill Hill","street2":"11 Toban Junction","city":"Morgantown","state":"WV","zip":"26505","country":"United States","coordinates":{"locLat":"39.6505","locLong":"-79.944"},"phone":"1-(304)678-8465","contact":7072},
{"id":186,"street1":"24 Gateway Road","street2":"5 Norway Maple Court","city":"El Paso","state":"TX","zip":"79984","country":"United States","coordinates":{"locLat":"31.6948","locLong":"-106.3"},"phone":"1-(915)504-0811","contact":7434},
{"id":187,"street1":"45384 West Court","street2":"3 Kropf Place","city":"Trenton","state":"NJ","zip":"08619","country":"United States","coordinates":{"locLat":"40.2418","locLong":"-74.6962"},"phone":"1-(609)639-1662","contact":5368},
{"id":188,"street1":"7 Gulseth Trail","street2":"9019 Almo Alley","city":"Syracuse","state":"NY","zip":"13205","country":"United States","coordinates":{"locLat":"43.0123","locLong":"-76.1452"},"phone":"1-(315)656-3468","contact":902},
{"id":189,"street1":"4567 Grover Plaza","street2":"3 Sullivan Way","city":"Little Rock","state":"AR","zip":"72204","country":"United States","coordinates":{"locLat":"34.7269","locLong":"-92.344"},"phone":"1-(501)669-8607","contact":6913},
{"id":190,"street1":"1775 Comanche Street","street2":"350 Gateway Parkway","city":"Fort Collins","state":"CO","zip":"80525","country":"United States","coordinates":{"locLat":"40.5384","locLong":"-105.0547"},"phone":"1-(970)338-7602","contact":4644},
{"id":191,"street1":"2 4th Way","street2":"8664 Stephen Junction","city":"San Francisco","state":"CA","zip":"94164","country":"United States","coordinates":{"locLat":"37.7848","locLong":"-122.7278"},"phone":"1-(415)933-6431","contact":4544},
{"id":192,"street1":"72 Cody Circle","street2":"22 Ridgeway Lane","city":"Fresno","state":"CA","zip":"93794","country":"United States","coordinates":{"locLat":"36.7464","locLong":"-119.6397"},"phone":"1-(559)631-4257","contact":3093},
{"id":193,"street1":"36274 Karstens Avenue","street2":"744 Kensington Junction","city":"Hollywood","state":"FL","zip":"33028","country":"United States","coordinates":{"locLat":"26.0185","locLong":"-80.3449"},"phone":"1-(305)251-4413","contact":4351},
{"id":194,"street1":"190 Sage Junction","street2":"19393 Pine View Junction","city":"Seattle","state":"WA","zip":"98109","country":"United States","coordinates":{"locLat":"47.6339","locLong":"-122.3476"},"phone":"1-(206)206-9350","contact":4897},
{"id":195,"street1":"7 Glendale Road","street2":"6 Merchant Street","city":"Houston","state":"TX","zip":"77075","country":"United States","coordinates":{"locLat":"29.6223","locLong":"-95.26"},"phone":"1-(281)286-2791","contact":7140},
{"id":196,"street1":"259 Nelson Street","street2":"3191 Monica Court","city":"San Francisco","state":"CA","zip":"94121","country":"United States","coordinates":{"locLat":"37.7786","locLong":"-122.4892"},"phone":"1-(858)857-4074","contact":4864},
{"id":197,"street1":"7 Algoma Street","street2":"65516 Toban Road","city":"Colorado Springs","state":"CO","zip":"80940","country":"United States","coordinates":{"locLat":"38.8247","locLong":"-104.562"},"phone":"1-(719)366-0448","contact":9749},
{"id":198,"street1":"45 Logan Crossing","street2":"5 Wayridge Terrace","city":"Carol Stream","state":"IL","zip":"60158","country":"United States","coordinates":{"locLat":"41.9166","locLong":"-88.1208"},"phone":"1-(309)847-6531","contact":7203},
{"id":199,"street1":"7 Mosinee Court","street2":"16 Stoughton Plaza","city":"Lafayette","state":"LA","zip":"70593","country":"United States","coordinates":{"locLat":"30.2081","locLong":"-92.0951"},"phone":"1-(337)960-8218","contact":3596},
{"id":200,"street1":"4 Dayton Avenue","street2":"50 Delaware Terrace","city":"Baton Rouge","state":"LA","zip":"70810","country":"United States","coordinates":{"locLat":"30.3633","locLong":"-91.0919"},"phone":"1-(225)761-1018","contact":1618},
{"id":201,"street1":"5147 Acker Street","street2":"6 Paget Place","city":"Richmond","state":"VA","zip":"23272","country":"United States","coordinates":{"locLat":"37.5242","locLong":"-77.4932"},"phone":"1-(804)928-7191","contact":7976},
{"id":202,"street1":"694 Sunfield Road","street2":"7 Prentice Street","city":"Wichita","state":"KS","zip":"67215","country":"United States","coordinates":{"locLat":"37.6333","locLong":"-97.425"},"phone":"1-(316)902-7281","contact":5047},
{"id":203,"street1":"4062 Pankratz Lane","street2":"01225 Dexter Lane","city":"Loretto","state":"MN","zip":"55598","country":"United States","coordinates":{"locLat":"45.0159","locLong":"-93.4719"},"phone":"1-(763)533-2137","contact":7075},
{"id":204,"street1":"5247 Gale Road","street2":"825 Packers Place","city":"Jacksonville","state":"FL","zip":"32230","country":"United States","coordinates":{"locLat":"30.3449","locLong":"-81.6831"},"phone":"1-(904)773-4438","contact":326},
{"id":205,"street1":"4682 Sage Hill","street2":"8812 Thompson Avenue","city":"Naples","state":"FL","zip":"33961","country":"United States","coordinates":{"locLat":"26.045","locLong":"-81.6669"},"phone":"1-(305)640-5876","contact":4906},
{"id":206,"street1":"53843 Larry Junction","street2":"49346 Amoth Court","city":"Jacksonville","state":"FL","zip":"32220","country":"United States","coordinates":{"locLat":"30.329","locLong":"-81.8176"},"phone":"1-(904)458-9121","contact":7012},
{"id":207,"street1":"76 Brown Alley","street2":"74 Jana Park","city":"Inglewood","state":"CA","zip":"90398","country":"United States","coordinates":{"locLat":"33.7866","locLong":"-118.2987"},"phone":"1-(310)831-9639","contact":5363},
{"id":208,"street1":"8 Drewry Hill","street2":"89752 Elmside Street","city":"Salt Lake City","state":"UT","zip":"84140","country":"United States","coordinates":{"locLat":"40.7713","locLong":"-111.9309"},"phone":"1-(801)349-1653","contact":4087},
{"id":209,"street1":"1043 Pine View Avenue","street2":"88892 Truax Hill","city":"Houston","state":"TX","zip":"77020","country":"United States","coordinates":{"locLat":"29.7758","locLong":"-95.3121"},"phone":"1-(281)330-0181","contact":4122},
{"id":210,"street1":"0244 West Alley","street2":"8763 Clemons Center","city":"San Diego","state":"CA","zip":"92176","country":"United States","coordinates":{"locLat":"33.0169","locLong":"-116.846"},"phone":"1-(619)386-5619","contact":1053},
{"id":211,"street1":"8607 Fremont Avenue","street2":"78 Green Circle","city":"Gaithersburg","state":"MD","zip":"20883","country":"United States","coordinates":{"locLat":"39.0883","locLong":"-77.1568"},"phone":"1-(240)978-6841","contact":6223},
{"id":212,"street1":"65 Lighthouse Bay Court","street2":"4029 Anthes Parkway","city":"South Lake Tahoe","state":"CA","zip":"96154","country":"United States","coordinates":{"locLat":"38.8753","locLong":"-120.0188"},"phone":"1-(530)748-2805","contact":990},
{"id":213,"street1":"10 Debra Lane","street2":"24 Mockingbird Terrace","city":"Lexington","state":"KY","zip":"40596","country":"United States","coordinates":{"locLat":"38.0283","locLong":"-84.4715"},"phone":"1-(859)798-2685","contact":4073},
{"id":214,"street1":"118 Meadow Vale Way","street2":"4973 Buena Vista Parkway","city":"Greensboro","state":"NC","zip":"27499","country":"United States","coordinates":{"locLat":"36.0807","locLong":"-80.0244"},"phone":"1-(336)658-1495","contact":2054},
{"id":215,"street1":"8300 Farragut Drive","street2":"8 Johnson Plaza","city":"Berkeley","state":"CA","zip":"94712","country":"United States","coordinates":{"locLat":"37.6802","locLong":"-121.9215"},"phone":"1-(510)490-1373","contact":3352},
{"id":216,"street1":"463 Veith Circle","street2":"98 Scofield Point","city":"Waterbury","state":"CT","zip":"06705","country":"United States","coordinates":{"locLat":"41.5503","locLong":"-72.9963"},"phone":"1-(203)567-4710","contact":7832},
{"id":217,"street1":"95739 Gina Trail","street2":"339 Straubel Avenue","city":"Anderson","state":"SC","zip":"29625","country":"United States","coordinates":{"locLat":"34.5271","locLong":"-82.7087"},"phone":"1-(864)455-4638","contact":797},
{"id":218,"street1":"3 Sycamore Drive","street2":"2294 Sunbrook Alley","city":"Kalamazoo","state":"MI","zip":"49048","country":"United States","coordinates":{"locLat":"42.3189","locLong":"-85.5152"},"phone":"1-(269)345-5154","contact":3717},
{"id":219,"street1":"3 Novick Alley","street2":"39 Bonner Trail","city":"Baton Rouge","state":"LA","zip":"70815","country":"United States","coordinates":{"locLat":"30.4558","locLong":"-91.0596"},"phone":"1-(225)774-3810","contact":3442},
{"id":220,"street1":"9287 Longview Center","street2":"9 Cordelia Trail","city":"Sioux Falls","state":"SD","zip":"57110","country":"United States","coordinates":{"locLat":"43.5486","locLong":"-96.6332"},"phone":"1-(605)550-6395","contact":7402},
{"id":221,"street1":"69 Ludington Trail","street2":"80 South Lane","city":"Minneapolis","state":"MN","zip":"55436","country":"United States","coordinates":{"locLat":"44.9034","locLong":"-93.374"},"phone":"1-(612)352-7879","contact":7873},
{"id":222,"street1":"286 Continental Place","street2":"23240 Luster Lane","city":"Las Vegas","state":"NV","zip":"89130","country":"United States","coordinates":{"locLat":"36.2471","locLong":"-115.221"},"phone":"1-(702)710-2237","contact":6903},
{"id":223,"street1":"334 Acker Circle","street2":"8668 Northridge Alley","city":"El Paso","state":"TX","zip":"88563","country":"United States","coordinates":{"locLat":"31.6948","locLong":"-106.3"},"phone":"1-(915)216-9629","contact":6551},
{"id":224,"street1":"33 Charing Cross Hill","street2":"10783 Dryden Terrace","city":"Cincinnati","state":"OH","zip":"45223","country":"United States","coordinates":{"locLat":"39.1696","locLong":"-84.5478"},"phone":"1-(513)508-3519","contact":7220},
{"id":225,"street1":"7 8th Plaza","street2":"7 Lillian Crossing","city":"Wilmington","state":"DE","zip":"19805","country":"United States","coordinates":{"locLat":"39.7434","locLong":"-75.5827"},"phone":"1-(302)725-9557","contact":2249},
{"id":226,"street1":"5 Northport Street","street2":"00 Clove Street","city":"Greensboro","state":"NC","zip":"27409","country":"United States","coordinates":{"locLat":"36.0777","locLong":"-79.9086"},"phone":"1-(336)555-9597","contact":8626},
{"id":227,"street1":"875 Scoville Trail","street2":"2097 Ryan Pass","city":"El Paso","state":"TX","zip":"88563","country":"United States","coordinates":{"locLat":"31.6948","locLong":"-106.3"},"phone":"1-(915)957-9388","contact":2205},
{"id":228,"street1":"4107 Lindbergh Point","street2":"89971 Meadow Ridge Road","city":"Los Angeles","state":"CA","zip":"90065","country":"United States","coordinates":{"locLat":"34.1073","locLong":"-118.2266"},"phone":"1-(323)174-7155","contact":4565},
{"id":229,"street1":"11 Karstens Pass","street2":"8005 Northwestern Street","city":"Amarillo","state":"TX","zip":"79182","country":"United States","coordinates":{"locLat":"35.4015","locLong":"-101.8951"},"phone":"1-(806)488-4261","contact":948},
{"id":230,"street1":"96066 Ohio Circle","street2":"615 Transport Parkway","city":"San Diego","state":"CA","zip":"92145","country":"United States","coordinates":{"locLat":"32.8891","locLong":"-117.1005"},"phone":"1-(619)753-2285","contact":7538},
{"id":231,"street1":"645 Mcbride Park","street2":"8 Meadow Ridge Park","city":"Brooklyn","state":"NY","zip":"11215","country":"United States","coordinates":{"locLat":"40.6669","locLong":"-73.9828"},"phone":"1-(917)129-1177","contact":2200},
{"id":232,"street1":"22882 Red Cloud Terrace","street2":"1 Schlimgen Road","city":"Dayton","state":"OH","zip":"45440","country":"United States","coordinates":{"locLat":"39.6749","locLong":"-84.1136"},"phone":"1-(937)102-8754","contact":957},
{"id":233,"street1":"2331 Truax Center","street2":"23375 Darwin Crossing","city":"Oklahoma City","state":"OK","zip":"73119","country":"United States","coordinates":{"locLat":"35.421","locLong":"-97.5616"},"phone":"1-(405)617-7539","contact":8500},
{"id":234,"street1":"90 Logan Avenue","street2":"8 Meadow Vale Alley","city":"Boston","state":"MA","zip":"02216","country":"United States","coordinates":{"locLat":"42.3389","locLong":"-70.9196"},"phone":"1-(617)908-5581","contact":256},
{"id":235,"street1":"25 Melody Trail","street2":"55985 Calypso Avenue","city":"Augusta","state":"GA","zip":"30919","country":"United States","coordinates":{"locLat":"33.386","locLong":"-82.091"},"phone":"1-(706)957-3788","contact":8081},
{"id":236,"street1":"15332 Kipling Alley","street2":"5 Welch Trail","city":"Raleigh","state":"NC","zip":"27658","country":"United States","coordinates":{"locLat":"35.7977","locLong":"-78.6253"},"phone":"1-(919)522-1723","contact":5342},
{"id":237,"street1":"433 Kinsman Way","street2":"51 Badeau Place","city":"Raleigh","state":"NC","zip":"27626","country":"United States","coordinates":{"locLat":"35.7977","locLong":"-78.6253"},"phone":"1-(919)630-9095","contact":4010},
{"id":238,"street1":"62 Stuart Junction","street2":"05 Center Pass","city":"Carson City","state":"NV","zip":"89706","country":"United States","coordinates":{"locLat":"39.2025","locLong":"-119.7526"},"phone":"1-(775)452-5786","contact":9179},
{"id":239,"street1":"78 Mariners Cove Street","street2":"478 Rieder Hill","city":"Colorado Springs","state":"CO","zip":"80935","country":"United States","coordinates":{"locLat":"38.8247","locLong":"-104.562"},"phone":"1-(719)675-5047","contact":1328},
{"id":240,"street1":"854 Upham Circle","street2":"46 Namekagon Way","city":"Fresno","state":"CA","zip":"93778","country":"United States","coordinates":{"locLat":"36.7464","locLong":"-119.6397"},"phone":"1-(559)218-5413","contact":3531},
{"id":241,"street1":"006 Pine View Terrace","street2":"5178 Dottie Park","city":"Tucson","state":"AZ","zip":"85710","country":"United States","coordinates":{"locLat":"32.2138","locLong":"-110.824"},"phone":"1-(520)923-6015","contact":48},
{"id":242,"street1":"766 Redwing Road","street2":"46388 Golden Leaf Road","city":"Memphis","state":"TN","zip":"38114","country":"United States","coordinates":{"locLat":"35.0981","locLong":"-89.9825"},"phone":"1-(901)926-4106","contact":3790},
{"id":243,"street1":"39 Brickson Park Lane","street2":"0 Buhler Point","city":"Erie","state":"PA","zip":"16505","country":"United States","coordinates":{"locLat":"42.1109","locLong":"-80.1534"},"phone":"1-(814)811-0477","contact":51},
{"id":244,"street1":"51 8th Hill","street2":"1 International Way","city":"Rockville","state":"MD","zip":"20851","country":"United States","coordinates":{"locLat":"39.0763","locLong":"-77.1234"},"phone":"1-(240)525-8566","contact":944},
{"id":245,"street1":"540 Village Green Hill","street2":"122 Merchant Pass","city":"Fort Lauderdale","state":"FL","zip":"33336","country":"United States","coordinates":{"locLat":"26.1219","locLong":"-80.1436"},"phone":"1-(754)260-4285","contact":7442},
{"id":246,"street1":"39 Forest Parkway","street2":"690 Forster Trail","city":"Bethesda","state":"MD","zip":"20816","country":"United States","coordinates":{"locLat":"38.9585","locLong":"-77.1153"},"phone":"1-(301)403-7794","contact":3441},
{"id":247,"street1":"4214 Vernon Park","street2":"3112 Manley Point","city":"Indianapolis","state":"IN","zip":"46231","country":"United States","coordinates":{"locLat":"39.7038","locLong":"-86.3029"},"phone":"1-(317)608-2300","contact":1116},
{"id":248,"street1":"11301 Meadow Vale Trail","street2":"260 Anhalt Crossing","city":"El Paso","state":"TX","zip":"79999","country":"United States","coordinates":{"locLat":"31.6948","locLong":"-106.3"},"phone":"1-(915)802-0458","contact":7552},
{"id":249,"street1":"786 Eagle Crest Plaza","street2":"354 Corscot Point","city":"Kansas City","state":"MO","zip":"64114","country":"United States","coordinates":{"locLat":"38.9621","locLong":"-94.5959"},"phone":"1-(816)239-9947","contact":2118},
{"id":250,"street1":"5 Oxford Park","street2":"880 Farwell Lane","city":"Washington","state":"DC","zip":"20530","country":"United States","coordinates":{"locLat":"38.8976","locLong":"-77.027"},"phone":"1-(202)454-7600","contact":9781},
{"id":251,"street1":"3 Summer Ridge Pass","street2":"39 Manufacturers Trail","city":"Bonita Springs","state":"FL","zip":"34135","country":"United States","coordinates":{"locLat":"26.3771","locLong":"-81.7334"},"phone":"1-(941)841-5548","contact":8209},
{"id":252,"street1":"25517 Kennedy Parkway","street2":"117 Superior Terrace","city":"Sacramento","state":"CA","zip":"95894","country":"United States","coordinates":{"locLat":"38.5816","locLong":"-121.4933"},"phone":"1-(916)935-2653","contact":8007},
{"id":253,"street1":"7244 Farragut Junction","street2":"920 Londonderry Plaza","city":"Salt Lake City","state":"UT","zip":"84145","country":"United States","coordinates":{"locLat":"40.6681","locLong":"-111.9083"},"phone":"1-(801)745-4842","contact":1151},
{"id":254,"street1":"307 Nelson Avenue","street2":"6839 Steensland Park","city":"Naples","state":"FL","zip":"34108","country":"United States","coordinates":{"locLat":"26.2416","locLong":"-81.8071"},"phone":"1-(941)725-9980","contact":4676},
{"id":255,"street1":"993 Fisk Park","street2":"08 Prairieview Point","city":"Saint Augustine","state":"FL","zip":"32092","country":"United States","coordinates":{"locLat":"29.9475","locLong":"-81.5264"},"phone":"1-(904)869-0003","contact":7570},
{"id":256,"street1":"9 Grayhawk Lane","street2":"3 Vermont Street","city":"Los Angeles","state":"CA","zip":"90025","country":"United States","coordinates":{"locLat":"34.0447","locLong":"-118.4487"},"phone":"1-(213)461-0671","contact":1004},
{"id":257,"street1":"377 5th Avenue","street2":"8 Washington Place","city":"Omaha","state":"NE","zip":"68105","country":"United States","coordinates":{"locLat":"41.2435","locLong":"-95.9629"},"phone":"1-(402)651-9856","contact":6997},
{"id":258,"street1":"0 Johnson Pass","street2":"6520 Fair Oaks Parkway","city":"Clearwater","state":"FL","zip":"33763","country":"United States","coordinates":{"locLat":"28.0173","locLong":"-82.7461"},"phone":"1-(727)769-7066","contact":9880},
{"id":259,"street1":"8 Hoffman Point","street2":"24 Continental Drive","city":"Garden Grove","state":"CA","zip":"92844","country":"United States","coordinates":{"locLat":"33.7661","locLong":"-117.9738"},"phone":"1-(310)581-4284","contact":1374},
{"id":260,"street1":"82 Golf Course Drive","street2":"82058 Golf Center","city":"Van Nuys","state":"CA","zip":"91499","country":"United States","coordinates":{"locLat":"33.7866","locLong":"-118.2987"},"phone":"1-(213)905-4667","contact":2180},
{"id":261,"street1":"58 Marquette Trail","street2":"593 Kedzie Circle","city":"Chattanooga","state":"TN","zip":"37405","country":"United States","coordinates":{"locLat":"35.0768","locLong":"-85.3082"},"phone":"1-(423)910-7201","contact":8204},
{"id":262,"street1":"16 Donald Park","street2":"4121 Dottie Circle","city":"Milwaukee","state":"WI","zip":"53210","country":"United States","coordinates":{"locLat":"43.0685","locLong":"-87.9715"},"phone":"1-(262)928-4920","contact":6725},
{"id":263,"street1":"033 Monica Crossing","street2":"4647 Saint Paul Street","city":"Flushing","state":"NY","zip":"11355","country":"United States","coordinates":{"locLat":"40.7536","locLong":"-73.8226"},"phone":"1-(347)345-9612","contact":1530},
{"id":264,"street1":"65 Division Crossing","street2":"128 Kingsford Pass","city":"Mobile","state":"AL","zip":"36622","country":"United States","coordinates":{"locLat":"30.6589","locLong":"-88.178"},"phone":"1-(251)702-4513","contact":6105},
{"id":265,"street1":"3 Service Junction","street2":"60 Service Trail","city":"Shawnee Mission","state":"KS","zip":"66215","country":"United States","coordinates":{"locLat":"38.949","locLong":"-94.7405"},"phone":"1-(913)468-5871","contact":8528},
{"id":266,"street1":"5402 Claremont Terrace","street2":"1 Cascade Crossing","city":"Abilene","state":"TX","zip":"79605","country":"United States","coordinates":{"locLat":"32.432","locLong":"-99.7724"},"phone":"1-(325)616-3030","contact":4152},
{"id":267,"street1":"453 Weeping Birch Avenue","street2":"88608 Mosinee Plaza","city":"Washington","state":"DC","zip":"20520","country":"United States","coordinates":{"locLat":"38.8932","locLong":"-77.049"},"phone":"1-(202)544-9226","contact":1000},
{"id":268,"street1":"30838 Sycamore Street","street2":"39651 Hallows Place","city":"Portland","state":"OR","zip":"97206","country":"United States","coordinates":{"locLat":"45.484","locLong":"-122.5973"},"phone":"1-(503)365-3251","contact":9189},
{"id":269,"street1":"48075 Melrose Junction","street2":"9526 Pankratz Court","city":"Odessa","state":"TX","zip":"79769","country":"United States","coordinates":{"locLat":"31.7466","locLong":"-102.567"},"phone":"1-(432)791-0299","contact":3205},
{"id":270,"street1":"41940 Northridge Terrace","street2":"8 Maywood Point","city":"Omaha","state":"NE","zip":"68110","country":"United States","coordinates":{"locLat":"41.2933","locLong":"-95.9361"},"phone":"1-(402)516-5812","contact":6347},
{"id":271,"street1":"3025 Columbus Plaza","street2":"541 Mesta Street","city":"Oklahoma City","state":"OK","zip":"73167","country":"United States","coordinates":{"locLat":"35.5514","locLong":"-97.4075"},"phone":"1-(405)560-2928","contact":169},
{"id":272,"street1":"7877 Coolidge Junction","street2":"9 Victoria Trail","city":"New York City","state":"NY","zip":"10170","country":"United States","coordinates":{"locLat":"40.7526","locLong":"-73.9755"},"phone":"1-(212)798-8153","contact":849},
{"id":273,"street1":"95630 Kennedy Street","street2":"9873 Kim Way","city":"Denver","state":"CO","zip":"80249","country":"United States","coordinates":{"locLat":"39.7783","locLong":"-104.7556"},"phone":"1-(303)526-9571","contact":1993},
{"id":274,"street1":"00073 Tomscot Drive","street2":"4 Leroy Lane","city":"Arlington","state":"VA","zip":"22225","country":"United States","coordinates":{"locLat":"38.8808","locLong":"-77.113"},"phone":"1-(571)328-6046","contact":8349},
{"id":275,"street1":"06099 Ridgeview Pass","street2":"2 Londonderry Place","city":"Charlotte","state":"NC","zip":"28210","country":"United States","coordinates":{"locLat":"35.1316","locLong":"-80.8577"},"phone":"1-(704)806-9074","contact":6624},
{"id":276,"street1":"388 Laurel Center","street2":"58 Arkansas Plaza","city":"Grand Rapids","state":"MI","zip":"49544","country":"United States","coordinates":{"locLat":"43.0073","locLong":"-85.7255"},"phone":"1-(616)503-5452","contact":8224},
{"id":277,"street1":"392 Grasskamp Avenue","street2":"780 Mayfield Avenue","city":"San Diego","state":"CA","zip":"92121","country":"United States","coordinates":{"locLat":"32.8919","locLong":"-117.2035"},"phone":"1-(858)533-5208","contact":5892},
{"id":278,"street1":"403 Birchwood Road","street2":"63303 Hazelcrest Alley","city":"Savannah","state":"GA","zip":"31416","country":"United States","coordinates":{"locLat":"32.0053","locLong":"-81.0477"},"phone":"1-(912)615-9968","contact":351},
{"id":279,"street1":"7 Towne Plaza","street2":"4 Victoria Place","city":"New Orleans","state":"LA","zip":"70187","country":"United States","coordinates":{"locLat":"30.033","locLong":"-89.8826"},"phone":"1-(504)108-3316","contact":3728},
{"id":280,"street1":"1 Talmadge Point","street2":"825 Arrowood Hill","city":"San Bernardino","state":"CA","zip":"92424","country":"United States","coordinates":{"locLat":"34.84","locLong":"-115.9671"},"phone":"1-(909)411-8478","contact":150},
{"id":281,"street1":"49513 Bowman Avenue","street2":"891 Vera Avenue","city":"Fort Myers","state":"FL","zip":"33906","country":"United States","coordinates":{"locLat":"26.5529","locLong":"-81.9486"},"phone":"1-(239)163-7096","contact":8631},
{"id":282,"street1":"77159 Mallory Center","street2":"7377 Norway Maple Drive","city":"Nashville","state":"TN","zip":"37215","country":"United States","coordinates":{"locLat":"36.0986","locLong":"-86.8219"},"phone":"1-(615)304-4018","contact":5337},
{"id":283,"street1":"52 Eastwood Terrace","street2":"19 Warrior Court","city":"North Port","state":"FL","zip":"34290","country":"United States","coordinates":{"locLat":"27.0459","locLong":"-82.2491"},"phone":"1-(941)864-0502","contact":6816},
{"id":284,"street1":"39709 Arkansas Avenue","street2":"2700 Petterle Drive","city":"Chicago","state":"IL","zip":"60636","country":"United States","coordinates":{"locLat":"41.776","locLong":"-87.6674"},"phone":"1-(773)870-8127","contact":4520},
{"id":285,"street1":"14 2nd Way","street2":"73317 Stone Corner Hill","city":"Philadelphia","state":"PA","zip":"19191","country":"United States","coordinates":{"locLat":"40.0018","locLong":"-75.1179"},"phone":"1-(215)208-9302","contact":7890},
{"id":286,"street1":"88251 Messerschmidt Place","street2":"48368 Sherman Drive","city":"Chattanooga","state":"TN","zip":"37405","country":"United States","coordinates":{"locLat":"35.0768","locLong":"-85.3082"},"phone":"1-(423)610-2788","contact":8696},
{"id":287,"street1":"6 Scofield Point","street2":"7744 Vidon Parkway","city":"Boise","state":"ID","zip":"83711","country":"United States","coordinates":{"locLat":"43.4599","locLong":"-116.244"},"phone":"1-(208)995-1013","contact":7691},
{"id":288,"street1":"01374 Basil Pass","street2":"65 Helena Court","city":"Honolulu","state":"HI","zip":"96820","country":"United States","coordinates":{"locLat":"21.351","locLong":"-157.8795"},"phone":"1-(808)661-0937","contact":1104},
{"id":289,"street1":"27 Golf Course Center","street2":"642 Haas Street","city":"Cincinnati","state":"OH","zip":"45228","country":"United States","coordinates":{"locLat":"39.0706","locLong":"-84.4179"},"phone":"1-(513)651-0790","contact":8258},
{"id":290,"street1":"7715 Marquette Hill","street2":"36 Corscot Court","city":"Akron","state":"OH","zip":"44329","country":"United States","coordinates":{"locLat":"41.0655","locLong":"-81.5203"},"phone":"1-(330)931-3191","contact":8512},
{"id":291,"street1":"1336 Dexter Crossing","street2":"362 Katie Junction","city":"Dallas","state":"TX","zip":"75216","country":"United States","coordinates":{"locLat":"32.7086","locLong":"-96.7955"},"phone":"1-(469)835-3975","contact":8685},
{"id":292,"street1":"7 Veith Crossing","street2":"8641 Moose Point","city":"Madison","state":"WI","zip":"53790","country":"United States","coordinates":{"locLat":"43.0696","locLong":"-89.4239"},"phone":"1-(608)569-2911","contact":5569},
{"id":293,"street1":"46 Lotheville Lane","street2":"07231 Tomscot Circle","city":"New York City","state":"NY","zip":"10249","country":"United States","coordinates":{"locLat":"40.7808","locLong":"-73.9772"},"phone":"1-(212)231-2274","contact":5837},
{"id":294,"street1":"40 Mosinee Circle","street2":"4 Sherman Way","city":"Birmingham","state":"AL","zip":"35225","country":"United States","coordinates":{"locLat":"33.5446","locLong":"-86.9292"},"phone":"1-(205)286-8410","contact":2355},
{"id":295,"street1":"146 Superior Avenue","street2":"217 Daystar Lane","city":"Washington","state":"DC","zip":"20425","country":"United States","coordinates":{"locLat":"38.8933","locLong":"-77.0146"},"phone":"1-(202)239-6543","contact":7790},
{"id":296,"street1":"55 Rusk Place","street2":"5817 Del Sol Trail","city":"Phoenix","state":"AZ","zip":"85005","country":"United States","coordinates":{"locLat":"33.2765","locLong":"-112.1872"},"phone":"1-(602)681-0757","contact":7193},
{"id":297,"street1":"7 Reindahl Drive","street2":"99 Arapahoe Terrace","city":"Akron","state":"OH","zip":"44321","country":"United States","coordinates":{"locLat":"41.1002","locLong":"-81.6443"},"phone":"1-(330)916-9018","contact":5768},
{"id":298,"street1":"615 Division Terrace","street2":"0339 Northwestern Point","city":"Biloxi","state":"MS","zip":"39534","country":"United States","coordinates":{"locLat":"30.4067","locLong":"-88.9211"},"phone":"1-(228)750-0483","contact":3072},
{"id":299,"street1":"23 Stoughton Park","street2":"8270 Arkansas Park","city":"Fresno","state":"CA","zip":"93726","country":"United States","coordinates":{"locLat":"36.7949","locLong":"-119.7604"},"phone":"1-(209)626-9041","contact":6622},
{"id":300,"street1":"81 Fallview Alley","street2":"12 Meadow Valley Crossing","city":"Saint Paul","state":"MN","zip":"55127","country":"United States","coordinates":{"locLat":"45.0803","locLong":"-93.0875"},"phone":"1-(612)680-8147","contact":8735},
{"id":301,"street1":"879 Buena Vista Terrace","street2":"4913 Maywood Junction","city":"Arlington","state":"VA","zip":"22234","country":"United States","coordinates":{"locLat":"38.8808","locLong":"-77.113"},"phone":"1-(571)463-8798","contact":9116},
{"id":302,"street1":"0024 Summerview Court","street2":"8772 Gerald Road","city":"Saint Louis","state":"MO","zip":"63104","country":"United States","coordinates":{"locLat":"38.6128","locLong":"-90.2185"},"phone":"1-(314)515-2239","contact":6428},
{"id":303,"street1":"6 Daystar Hill","street2":"2 Burrows Terrace","city":"Chicago","state":"IL","zip":"60641","country":"United States","coordinates":{"locLat":"41.9453","locLong":"-87.7474"},"phone":"1-(312)141-1274","contact":5897},
{"id":304,"street1":"78037 Haas Center","street2":"1 Esker Park","city":"Kansas City","state":"MO","zip":"64130","country":"United States","coordinates":{"locLat":"39.0351","locLong":"-94.5467"},"phone":"1-(816)322-7010","contact":2251},
{"id":305,"street1":"42 Farmco Place","street2":"4743 Waywood Court","city":"Washington","state":"DC","zip":"20046","country":"United States","coordinates":{"locLat":"38.8933","locLong":"-77.0146"},"phone":"1-(202)318-6124","contact":8481},
{"id":306,"street1":"783 Lyons Alley","street2":"43 Michigan Street","city":"Oklahoma City","state":"OK","zip":"73152","country":"United States","coordinates":{"locLat":"35.5514","locLong":"-97.4075"},"phone":"1-(405)345-4523","contact":115},
{"id":307,"street1":"8 Del Mar Drive","street2":"70579 Kensington Parkway","city":"Corpus Christi","state":"TX","zip":"78415","country":"United States","coordinates":{"locLat":"27.7262","locLong":"-97.4078"},"phone":"1-(361)297-3695","contact":6823},
{"id":308,"street1":"437 Reindahl Way","street2":"5 Linden Trail","city":"San Jose","state":"CA","zip":"95128","country":"United States","coordinates":{"locLat":"37.3163","locLong":"-121.9356"},"phone":"1-(714)554-3608","contact":2237},
{"id":309,"street1":"46 Claremont Park","street2":"78 Grayhawk Alley","city":"Stamford","state":"CT","zip":"06912","country":"United States","coordinates":{"locLat":"41.3089","locLong":"-73.3637"},"phone":"1-(203)694-6619","contact":6197},
{"id":310,"street1":"2814 Katie Parkway","street2":"01972 Alpine Avenue","city":"Reston","state":"VA","zip":"20195","country":"United States","coordinates":{"locLat":"38.8318","locLong":"-77.2888"},"phone":"1-(703)307-1960","contact":8743},
{"id":311,"street1":"1 Nevada Place","street2":"3 Fremont Drive","city":"Alhambra","state":"CA","zip":"91841","country":"United States","coordinates":{"locLat":"33.7866","locLong":"-118.2987"},"phone":"1-(626)727-3111","contact":9508},
{"id":312,"street1":"6 Reinke Avenue","street2":"69248 Emmet Pass","city":"South Bend","state":"IN","zip":"46620","country":"United States","coordinates":{"locLat":"41.5968","locLong":"-86.293"},"phone":"1-(574)946-0236","contact":1643},
{"id":313,"street1":"9 Arkansas Alley","street2":"31889 Florence Junction","city":"Roanoke","state":"VA","zip":"24029","country":"United States","coordinates":{"locLat":"37.2742","locLong":"-79.9579"},"phone":"1-(540)822-2439","contact":302},
{"id":314,"street1":"7919 6th Junction","street2":"4 Elgar Court","city":"Scottsdale","state":"AZ","zip":"85255","country":"United States","coordinates":{"locLat":"33.6968","locLong":"-111.8892"},"phone":"1-(480)503-7910","contact":21},
{"id":315,"street1":"11323 Fremont Trail","street2":"4 Meadow Vale Way","city":"Mesa","state":"AZ","zip":"85215","country":"United States","coordinates":{"locLat":"33.4707","locLong":"-111.7188"},"phone":"1-(602)250-1888","contact":2932},
{"id":316,"street1":"85827 Amoth Lane","street2":"21 Scoville Way","city":"Grand Rapids","state":"MI","zip":"49518","country":"United States","coordinates":{"locLat":"43.0314","locLong":"-85.5503"},"phone":"1-(616)173-1677","contact":3719},
{"id":317,"street1":"44 Namekagon Avenue","street2":"211 Esch Way","city":"Richmond","state":"CA","zip":"94807","country":"United States","coordinates":{"locLat":"37.7772","locLong":"-121.9554"},"phone":"1-(510)187-3575","contact":8835},
{"id":318,"street1":"4 Tennessee Trail","street2":"8 Summer Ridge Hill","city":"Valley Forge","state":"PA","zip":"19495","country":"United States","coordinates":{"locLat":"39.9832","locLong":"-75.7481"},"phone":"1-(484)767-2080","contact":4937},
{"id":319,"street1":"75 Thierer Parkway","street2":"39577 Dakota Terrace","city":"Fort Worth","state":"TX","zip":"76147","country":"United States","coordinates":{"locLat":"32.7714","locLong":"-97.2915"},"phone":"1-(817)823-4035","contact":1146},
{"id":320,"street1":"191 Kim Hill","street2":"7 Knutson Plaza","city":"Spartanburg","state":"SC","zip":"29305","country":"United States","coordinates":{"locLat":"35.1114","locLong":"-82.1055"},"phone":"1-(864)198-8974","contact":9287},
{"id":321,"street1":"97 Arrowood Alley","street2":"2033 Porter Place","city":"New Orleans","state":"LA","zip":"70129","country":"United States","coordinates":{"locLat":"30.0877","locLong":"-89.8462"},"phone":"1-(504)815-9460","contact":6190},
{"id":322,"street1":"88002 Manufacturers Place","street2":"292 Mayfield Plaza","city":"Alhambra","state":"CA","zip":"91841","country":"United States","coordinates":{"locLat":"33.7866","locLong":"-118.2987"},"phone":"1-(626)313-7908","contact":7150},
{"id":323,"street1":"95 Eastlawn Drive","street2":"232 Moulton Avenue","city":"Minneapolis","state":"MN","zip":"55417","country":"United States","coordinates":{"locLat":"44.9054","locLong":"-93.2361"},"phone":"1-(612)797-3630","contact":8547},
{"id":324,"street1":"1490 Division Way","street2":"0446 Towne Circle","city":"Indianapolis","state":"IN","zip":"46278","country":"United States","coordinates":{"locLat":"39.8726","locLong":"-86.2768"},"phone":"1-(317)349-8964","contact":9370},
{"id":325,"street1":"901 Bashford Alley","street2":"070 Kings Center","city":"Miami","state":"FL","zip":"33147","country":"United States","coordinates":{"locLat":"25.8507","locLong":"-80.2366"},"phone":"1-(305)349-5056","contact":5851},
{"id":326,"street1":"66801 Hollow Ridge Circle","street2":"53580 Waxwing Point","city":"Reno","state":"NV","zip":"89519","country":"United States","coordinates":{"locLat":"39.4814","locLong":"-119.8591"},"phone":"1-(775)609-4962","contact":8109},
{"id":327,"street1":"82 Swallow Drive","street2":"1 Michigan Crossing","city":"Wilmington","state":"DE","zip":"19892","country":"United States","coordinates":{"locLat":"39.5645","locLong":"-75.597"},"phone":"1-(302)900-8339","contact":5956},
{"id":328,"street1":"908 Beilfuss Circle","street2":"42 Dawn Lane","city":"Farmington","state":"MI","zip":"48335","country":"United States","coordinates":{"locLat":"42.4617","locLong":"-83.4053"},"phone":"1-(248)179-3487","contact":6367},
{"id":329,"street1":"996 Golden Leaf Plaza","street2":"56 Roxbury Alley","city":"Chicago","state":"IL","zip":"60681","country":"United States","coordinates":{"locLat":"41.8119","locLong":"-87.6873"},"phone":"1-(312)702-2087","contact":9146},
{"id":330,"street1":"515 Hoard Pass","street2":"0310 Eagan Street","city":"Trenton","state":"NJ","zip":"08650","country":"United States","coordinates":{"locLat":"40.2805","locLong":"-74.712"},"phone":"1-(609)256-3687","contact":8860},
{"id":331,"street1":"0066 Autumn Leaf Court","street2":"26 Oak Lane","city":"Rochester","state":"MN","zip":"55905","country":"United States","coordinates":{"locLat":"44.0225","locLong":"-92.4668"},"phone":"1-(507)187-8851","contact":8057},
{"id":332,"street1":"1 Duke Pass","street2":"51 Hintze Crossing","city":"Houston","state":"TX","zip":"77070","country":"United States","coordinates":{"locLat":"29.9781","locLong":"-95.5803"},"phone":"1-(713)222-8488","contact":6827},
{"id":333,"street1":"398 3rd Circle","street2":"90 Buhler Place","city":"Boston","state":"MA","zip":"02163","country":"United States","coordinates":{"locLat":"42.3253","locLong":"-71.1122"},"phone":"1-(339)963-3608","contact":2990},
{"id":334,"street1":"3448 Forest Dale Road","street2":"9717 7th Court","city":"Kalamazoo","state":"MI","zip":"49048","country":"United States","coordinates":{"locLat":"42.3189","locLong":"-85.5152"},"phone":"1-(269)449-9174","contact":6593},
{"id":335,"street1":"2834 Grasskamp Crossing","street2":"9 Holy Cross Trail","city":"Springfield","state":"IL","zip":"62705","country":"United States","coordinates":{"locLat":"39.7495","locLong":"-89.606"},"phone":"1-(217)117-3746","contact":8042},
{"id":336,"street1":"7803 Fordem Avenue","street2":"09 Elka Court","city":"Danbury","state":"CT","zip":"06816","country":"United States","coordinates":{"locLat":"41.3089","locLong":"-73.3637"},"phone":"1-(203)540-8011","contact":1316},
{"id":337,"street1":"53 3rd Center","street2":"41 Fisk Plaza","city":"Birmingham","state":"AL","zip":"35263","country":"United States","coordinates":{"locLat":"33.5225","locLong":"-86.8094"},"phone":"1-(205)325-8514","contact":38},
{"id":338,"street1":"4186 Prairieview Center","street2":"79456 Forest Drive","city":"Pasadena","state":"CA","zip":"91125","country":"United States","coordinates":{"locLat":"33.7866","locLong":"-118.2987"},"phone":"1-(626)404-3771","contact":1313},
{"id":339,"street1":"2624 Monica Way","street2":"8197 Westend Alley","city":"Greeley","state":"CO","zip":"80638","country":"United States","coordinates":{"locLat":"40.5009","locLong":"-104.315"},"phone":"1-(970)752-1417","contact":1830},
{"id":340,"street1":"9 Bunting Lane","street2":"7 Hauk Park","city":"Raleigh","state":"NC","zip":"27605","country":"United States","coordinates":{"locLat":"35.7908","locLong":"-78.653"},"phone":"1-(919)574-9218","contact":1681},
{"id":341,"street1":"8 Bashford Place","street2":"92 Rigney Center","city":"Sacramento","state":"CA","zip":"95818","country":"United States","coordinates":{"locLat":"38.5568","locLong":"-121.4929"},"phone":"1-(916)241-9492","contact":7451},
{"id":342,"street1":"37 Bayside Circle","street2":"86 Fallview Park","city":"Austin","state":"TX","zip":"78749","country":"United States","coordinates":{"locLat":"30.2166","locLong":"-97.8508"},"phone":"1-(512)129-1718","contact":1004},
{"id":343,"street1":"3 Cambridge Terrace","street2":"79793 Green Ridge Road","city":"Baltimore","state":"MD","zip":"21265","country":"United States","coordinates":{"locLat":"39.2847","locLong":"-76.6205"},"phone":"1-(410)895-2104","contact":147},
{"id":344,"street1":"6165 Cordelia Circle","street2":"79 Fremont Point","city":"Lincoln","state":"NE","zip":"68517","country":"United States","coordinates":{"locLat":"40.9317","locLong":"-96.6045"},"phone":"1-(402)444-3732","contact":1594},
{"id":345,"street1":"858 Londonderry Junction","street2":"044 Eagan Parkway","city":"Orange","state":"CA","zip":"92668","country":"United States","coordinates":{"locLat":"33.7867","locLong":"-117.8742"},"phone":"1-(858)638-3171","contact":4839},
{"id":346,"street1":"8 Waywood Center","street2":"8181 Pankratz Alley","city":"Richmond","state":"VA","zip":"23260","country":"United States","coordinates":{"locLat":"37.5242","locLong":"-77.4932"},"phone":"1-(804)144-2962","contact":9874},
{"id":347,"street1":"7104 Main Junction","street2":"06876 Lerdahl Park","city":"Cincinnati","state":"OH","zip":"45223","country":"United States","coordinates":{"locLat":"39.1696","locLong":"-84.5478"},"phone":"1-(513)850-9791","contact":4466},
{"id":348,"street1":"8 Colorado Lane","street2":"89788 Katie Junction","city":"Roanoke","state":"VA","zip":"24040","country":"United States","coordinates":{"locLat":"37.2742","locLong":"-79.9579"},"phone":"1-(540)674-4208","contact":5825},
{"id":349,"street1":"45033 Namekagon Place","street2":"4710 Talisman Center","city":"San Jose","state":"CA","zip":"95123","country":"United States","coordinates":{"locLat":"37.2458","locLong":"-121.8306"},"phone":"1-(408)123-8525","contact":1438},
{"id":350,"street1":"86 East Circle","street2":"016 Carberry Court","city":"Colorado Springs","state":"CO","zip":"80951","country":"United States","coordinates":{"locLat":"38.8881","locLong":"-104.6556"},"phone":"1-(719)379-2852","contact":3597},
{"id":351,"street1":"566 Warbler Lane","street2":"949 Main Crossing","city":"San Angelo","state":"TX","zip":"76905","country":"United States","coordinates":{"locLat":"31.4647","locLong":"-100.39"},"phone":"1-(325)378-7320","contact":9860},
{"id":352,"street1":"0033 Sunbrook Drive","street2":"1 Lindbergh Junction","city":"Arlington","state":"TX","zip":"76004","country":"United States","coordinates":{"locLat":"32.7714","locLong":"-97.2915"},"phone":"1-(817)584-4232","contact":2752},
{"id":353,"street1":"4 Granby Junction","street2":"0264 Carey Pass","city":"Ocala","state":"FL","zip":"34474","country":"United States","coordinates":{"locLat":"29.1565","locLong":"-82.2095"},"phone":"1-(352)986-0067","contact":9472},
{"id":354,"street1":"21665 Lighthouse Bay Drive","street2":"9150 Northridge Alley","city":"Duluth","state":"MN","zip":"55811","country":"United States","coordinates":{"locLat":"46.8147","locLong":"-92.1998"},"phone":"1-(218)581-6243","contact":3504},
{"id":355,"street1":"93 Mcbride Lane","street2":"0208 Hagan Plaza","city":"Syracuse","state":"NY","zip":"13205","country":"United States","coordinates":{"locLat":"43.0123","locLong":"-76.1452"},"phone":"1-(315)978-6994","contact":9760},
{"id":356,"street1":"8 Moose Trail","street2":"406 Mifflin Drive","city":"White Plains","state":"NY","zip":"10633","country":"United States","coordinates":{"locLat":"41.119","locLong":"-73.733"},"phone":"1-(845)357-8350","contact":9854},
{"id":357,"street1":"33 Merry Road","street2":"7792 Mallory Drive","city":"Berkeley","state":"CA","zip":"94712","country":"United States","coordinates":{"locLat":"37.6802","locLong":"-121.9215"},"phone":"1-(510)362-6236","contact":7272},
{"id":358,"street1":"72 Tennyson Point","street2":"109 Thompson Street","city":"Memphis","state":"TN","zip":"38131","country":"United States","coordinates":{"locLat":"35.0664","locLong":"-89.9921"},"phone":"1-(901)800-8052","contact":7215},
{"id":359,"street1":"5 Farmco Hill","street2":"01 Rowland Road","city":"Richmond","state":"VA","zip":"23293","country":"United States","coordinates":{"locLat":"37.5242","locLong":"-77.4932"},"phone":"1-(804)198-4043","contact":820},
{"id":360,"street1":"17391 Parkside Circle","street2":"74 Florence Lane","city":"Omaha","state":"NE","zip":"68117","country":"United States","coordinates":{"locLat":"41.2064","locLong":"-95.9953"},"phone":"1-(402)336-7005","contact":8800},
{"id":361,"street1":"33 Lunder Parkway","street2":"42055 Mallory Terrace","city":"Kansas City","state":"KS","zip":"66160","country":"United States","coordinates":{"locLat":"39.0966","locLong":"-94.7495"},"phone":"1-(913)112-2961","contact":3424},
{"id":362,"street1":"4275 Esch Avenue","street2":"449 Bluestem Parkway","city":"Abilene","state":"TX","zip":"79699","country":"United States","coordinates":{"locLat":"32.4665","locLong":"-99.7117"},"phone":"1-(325)799-5744","contact":5600},
{"id":363,"street1":"5550 Michigan Trail","street2":"7295 Jenifer Plaza","city":"Louisville","state":"KY","zip":"40287","country":"United States","coordinates":{"locLat":"38.189","locLong":"-85.6768"},"phone":"1-(502)526-5615","contact":2719},
{"id":364,"street1":"9133 Coolidge Lane","street2":"00 Vahlen Lane","city":"Boston","state":"MA","zip":"02216","country":"United States","coordinates":{"locLat":"42.3389","locLong":"-70.9196"},"phone":"1-(617)122-3070","contact":1554},
{"id":365,"street1":"39 Clemons Street","street2":"91516 Loftsgordon Hill","city":"Kissimmee","state":"FL","zip":"34745","country":"United States","coordinates":{"locLat":"27.9953","locLong":"-81.2593"},"phone":"1-(407)633-8624","contact":7359},
{"id":366,"street1":"9 Havey Junction","street2":"94673 Morningstar Plaza","city":"Reno","state":"NV","zip":"89550","country":"United States","coordinates":{"locLat":"39.5387","locLong":"-119.8225"},"phone":"1-(775)355-7493","contact":5009},
{"id":367,"street1":"115 Basil Crossing","street2":"2 Merry Junction","city":"Tulsa","state":"OK","zip":"74103","country":"United States","coordinates":{"locLat":"36.1539","locLong":"-95.9954"},"phone":"1-(918)694-0174","contact":3650},
{"id":368,"street1":"31 Lunder Place","street2":"514 Logan Terrace","city":"Dallas","state":"TX","zip":"75246","country":"United States","coordinates":{"locLat":"32.7948","locLong":"-96.7697"},"phone":"1-(469)892-9999","contact":4562},
{"id":369,"street1":"702 Surrey Road","street2":"411 Clyde Gallagher Plaza","city":"Palmdale","state":"CA","zip":"93591","country":"United States","coordinates":{"locLat":"34.6019","locLong":"-117.8123"},"phone":"1-(661)189-8561","contact":314},
{"id":370,"street1":"964 Kensington Road","street2":"37606 Prentice Park","city":"Philadelphia","state":"PA","zip":"19160","country":"United States","coordinates":{"locLat":"40.0018","locLong":"-75.1179"},"phone":"1-(215)397-9523","contact":5348},
{"id":371,"street1":"51 Bay Plaza","street2":"1220 Fair Oaks Hill","city":"Charlotte","state":"NC","zip":"28215","country":"United States","coordinates":{"locLat":"35.244","locLong":"-80.7387"},"phone":"1-(704)351-1091","contact":9983},
{"id":372,"street1":"04377 Muir Plaza","street2":"5200 Roth Parkway","city":"San Antonio","state":"TX","zip":"78225","country":"United States","coordinates":{"locLat":"29.3875","locLong":"-98.5245"},"phone":"1-(210)503-6511","contact":1945},
{"id":373,"street1":"09 Anniversary Circle","street2":"5654 Commercial Junction","city":"Pittsburgh","state":"PA","zip":"15210","country":"United States","coordinates":{"locLat":"40.4072","locLong":"-79.9839"},"phone":"1-(724)232-6062","contact":4666},
{"id":374,"street1":"75 Alpine Hill","street2":"477 Arrowood Drive","city":"Tucson","state":"AZ","zip":"85748","country":"United States","coordinates":{"locLat":"32.215","locLong":"-110.7758"},"phone":"1-(520)958-3524","contact":4183},
{"id":375,"street1":"168 Texas Trail","street2":"6717 Randy Way","city":"Charlotte","state":"NC","zip":"28263","country":"United States","coordinates":{"locLat":"35.2268","locLong":"-80.8432"},"phone":"1-(704)580-3490","contact":4000},
{"id":376,"street1":"684 Truax Pass","street2":"715 3rd Center","city":"Evansville","state":"IN","zip":"47705","country":"United States","coordinates":{"locLat":"37.9971","locLong":"-87.575"},"phone":"1-(812)849-5774","contact":1214},
{"id":377,"street1":"4 Huxley Terrace","street2":"15 Grover Road","city":"Laredo","state":"TX","zip":"78044","country":"United States","coordinates":{"locLat":"27.3637","locLong":"-99.4819"},"phone":"1-(956)735-8146","contact":1738},
{"id":378,"street1":"6139 6th Alley","street2":"35 Sutherland Hill","city":"Stamford","state":"CT","zip":"06922","country":"United States","coordinates":{"locLat":"41.0516","locLong":"-73.5143"},"phone":"1-(203)450-8187","contact":3855},
{"id":379,"street1":"953 Starling Alley","street2":"4 Dennis Trail","city":"West Palm Beach","state":"FL","zip":"33405","country":"United States","coordinates":{"locLat":"26.67","locLong":"-80.0582"},"phone":"1-(772)272-7730","contact":1061},
{"id":380,"street1":"03710 Judy Crossing","street2":"451 Debs Parkway","city":"San Jose","state":"CA","zip":"95123","country":"United States","coordinates":{"locLat":"37.2458","locLong":"-121.8306"},"phone":"1-(408)386-2207","contact":2931},
{"id":381,"street1":"21862 Veith Center","street2":"4 Westerfield Lane","city":"Riverside","state":"CA","zip":"92513","country":"United States","coordinates":{"locLat":"33.7529","locLong":"-116.0556"},"phone":"1-(951)588-1826","contact":2240},
{"id":382,"street1":"14382 Dwight Trail","street2":"30235 Village Green Road","city":"Mobile","state":"AL","zip":"36605","country":"United States","coordinates":{"locLat":"30.6341","locLong":"-88.0846"},"phone":"1-(251)848-8092","contact":8990},
{"id":383,"street1":"41548 Harper Road","street2":"73 Lakeland Park","city":"Henderson","state":"NV","zip":"89074","country":"United States","coordinates":{"locLat":"36.0384","locLong":"-115.0857"},"phone":"1-(702)998-1409","contact":3850},
{"id":384,"street1":"9502 Oak Valley Court","street2":"2552 Sundown Trail","city":"Roanoke","state":"VA","zip":"24014","country":"United States","coordinates":{"locLat":"37.2327","locLong":"-79.9463"},"phone":"1-(540)668-2125","contact":57},
{"id":385,"street1":"327 Sutherland Center","street2":"08172 Rockefeller Center","city":"Portland","state":"OR","zip":"97271","country":"United States","coordinates":{"locLat":"45.5806","locLong":"-122.3748"},"phone":"1-(971)234-2020","contact":6979},
{"id":386,"street1":"3 Schurz Center","street2":"80 Dovetail Road","city":"Washington","state":"DC","zip":"20244","country":"United States","coordinates":{"locLat":"38.8933","locLong":"-77.0146"},"phone":"1-(202)128-2493","contact":5192},
{"id":387,"street1":"5087 Maple Wood Drive","street2":"292 Lake View Junction","city":"Waterloo","state":"IA","zip":"50706","country":"United States","coordinates":{"locLat":"42.4156","locLong":"-92.2703"},"phone":"1-(319)933-8621","contact":7056},
{"id":388,"street1":"01969 Florence Hill","street2":"62 Artisan Park","city":"Gaithersburg","state":"MD","zip":"20883","country":"United States","coordinates":{"locLat":"39.0883","locLong":"-77.1568"},"phone":"1-(240)823-6849","contact":5310},
{"id":389,"street1":"6 Mockingbird Drive","street2":"402 Mallory Road","city":"New Orleans","state":"LA","zip":"70149","country":"United States","coordinates":{"locLat":"30.033","locLong":"-89.8826"},"phone":"1-(504)502-2417","contact":502},
{"id":390,"street1":"66 Morningstar Trail","street2":"71746 Parkside Terrace","city":"Minneapolis","state":"MN","zip":"55441","country":"United States","coordinates":{"locLat":"45.0058","locLong":"-93.4193"},"phone":"1-(612)592-1323","contact":7669},
{"id":391,"street1":"6 Lindbergh Court","street2":"979 Melvin Terrace","city":"Nashville","state":"TN","zip":"37220","country":"United States","coordinates":{"locLat":"36.0641","locLong":"-86.7697"},"phone":"1-(615)532-6718","contact":5585},
{"id":392,"street1":"42727 Mitchell Park","street2":"29 Jay Lane","city":"Columbus","state":"OH","zip":"43204","country":"United States","coordinates":{"locLat":"39.9523","locLong":"-83.078"},"phone":"1-(614)382-0886","contact":6860},
{"id":393,"street1":"3270 Ilene Road","street2":"38 Hooker Terrace","city":"Baton Rouge","state":"LA","zip":"70883","country":"United States","coordinates":{"locLat":"30.5159","locLong":"-91.0804"},"phone":"1-(225)964-4560","contact":1128},
{"id":394,"street1":"78300 Tony Court","street2":"927 Farragut Park","city":"Palm Bay","state":"FL","zip":"32909","country":"United States","coordinates":{"locLat":"27.9694","locLong":"-80.6473"},"phone":"1-(561)351-3500","contact":1168},
{"id":395,"street1":"5303 Service Pass","street2":"6708 Debs Trail","city":"Tacoma","state":"WA","zip":"98447","country":"United States","coordinates":{"locLat":"47.1441","locLong":"-122.4434"},"phone":"1-(253)307-2105","contact":8582},
{"id":396,"street1":"3792 Bunker Hill Center","street2":"1274 Darwin Circle","city":"Des Moines","state":"IA","zip":"50347","country":"United States","coordinates":{"locLat":"41.6727","locLong":"-93.5722"},"phone":"1-(515)452-1620","contact":9125},
{"id":397,"street1":"21550 Fuller Alley","street2":"844 Butternut Hill","city":"Lynchburg","state":"VA","zip":"24515","country":"United States","coordinates":{"locLat":"37.4009","locLong":"-79.1785"},"phone":"1-(434)862-6607","contact":1889},
{"id":398,"street1":"79 Dorton Drive","street2":"3596 Northview Court","city":"Terre Haute","state":"IN","zip":"47812","country":"United States","coordinates":{"locLat":"39.4336","locLong":"-87.4101"},"phone":"1-(812)179-4498","contact":789},
{"id":399,"street1":"4 Pankratz Terrace","street2":"819 Sugar Park","city":"Tucson","state":"AZ","zip":"85705","country":"United States","coordinates":{"locLat":"32.2691","locLong":"-110.9845"},"phone":"1-(520)268-2951","contact":8771},
{"id":400,"street1":"165 Portage Road","street2":"5 Caliangt Center","city":"Greensboro","state":"NC","zip":"27415","country":"United States","coordinates":{"locLat":"36.0807","locLong":"-80.0244"},"phone":"1-(336)395-3483","contact":6132},
{"id":401,"street1":"9 Melby Way","street2":"3829 Buena Vista Junction","city":"Anaheim","state":"CA","zip":"92805","country":"United States","coordinates":{"locLat":"33.8359","locLong":"-117.9086"},"phone":"1-(714)402-3200","contact":9060},
{"id":402,"street1":"970 Oneill Plaza","street2":"6024 Independence Pass","city":"Phoenix","state":"AZ","zip":"85030","country":"United States","coordinates":{"locLat":"33.2765","locLong":"-112.1872"},"phone":"1-(602)430-8964","contact":4445},
{"id":403,"street1":"65 Monument Point","street2":"1116 Heath Street","city":"Kansas City","state":"MO","zip":"64101","country":"United States","coordinates":{"locLat":"39.1024","locLong":"-94.5986"},"phone":"1-(816)921-7973","contact":7648},
{"id":404,"street1":"605 Lunder Avenue","street2":"27 Rieder Junction","city":"Seattle","state":"WA","zip":"98133","country":"United States","coordinates":{"locLat":"47.7377","locLong":"-122.3431"},"phone":"1-(206)371-1774","contact":8528},
{"id":405,"street1":"9982 Paget Park","street2":"913 Crowley Lane","city":"Pittsburgh","state":"PA","zip":"15279","country":"United States","coordinates":{"locLat":"40.4344","locLong":"-80.0248"},"phone":"1-(412)524-2309","contact":3221},
{"id":406,"street1":"18 Kenwood Court","street2":"7 Monica Place","city":"Pittsburgh","state":"PA","zip":"15250","country":"United States","coordinates":{"locLat":"40.4344","locLong":"-80.0248"},"phone":"1-(412)595-0897","contact":1993},
{"id":407,"street1":"7982 Jackson Avenue","street2":"27384 Atwood Center","city":"Largo","state":"FL","zip":"34643","country":"United States","coordinates":{"locLat":"27.881","locLong":"-82.7619"},"phone":"1-(727)976-4282","contact":8218},
{"id":408,"street1":"0 Ryan Court","street2":"028 Wayridge Drive","city":"Iowa City","state":"IA","zip":"52245","country":"United States","coordinates":{"locLat":"41.6649","locLong":"-91.5151"},"phone":"1-(319)390-8016","contact":1252},
{"id":409,"street1":"970 Transport Street","street2":"479 Merry Pass","city":"Topeka","state":"KS","zip":"66622","country":"United States","coordinates":{"locLat":"39.0429","locLong":"-95.7697"},"phone":"1-(785)134-7130","contact":7627},
{"id":410,"street1":"8 Loeprich Hill","street2":"265 Wayridge Drive","city":"Chattanooga","state":"TN","zip":"37410","country":"United States","coordinates":{"locLat":"35.0018","locLong":"-85.3138"},"phone":"1-(423)859-2532","contact":2188},
{"id":411,"street1":"367 Shelley Hill","street2":"927 Heffernan Terrace","city":"Grand Rapids","state":"MI","zip":"49510","country":"United States","coordinates":{"locLat":"43.0314","locLong":"-85.5503"},"phone":"1-(616)288-6565","contact":8817},
{"id":412,"street1":"87184 Vidon Court","street2":"22 Fordem Way","city":"Springfield","state":"MA","zip":"01114","country":"United States","coordinates":{"locLat":"42.1707","locLong":"-72.6048"},"phone":"1-(413)154-4214","contact":2809},
{"id":413,"street1":"376 Rockefeller Way","street2":"2 Harper Terrace","city":"Huntsville","state":"TX","zip":"77343","country":"United States","coordinates":{"locLat":"30.7813","locLong":"-95.5953"},"phone":"1-(936)643-9649","contact":3181},